Event Name,Event Type,Event Description,Date & Time,Duration (hrs),City,Country,Latitude,Longitude,Attendees,Average Rating,Review Count,Cost,Target Audience
Cycling Race through Hat Yai,Sports,Cycling Race through Hat Yai is set to bring an adrenaline rush with exciting games and activities.,2025-01-15 07:43:57,2,Hat Yai,Thailand,6.224497238701522,103.10605435219162,3068,3.4,157,Low,Nomads
Street Food Market in Phuket,Food,"Foodies, don’t miss Street Food Market in Phuket, the ultimate festival for street food and gourmet treats.",2025-01-01 23:24:34,6,Phuket,Thailand,8.413456994583715,99.56599248678933,1831,3.6,370,High,Locals
Beach Volleyball Tournament in Rayong,Sports,Join us at Beach Volleyball Tournament in Rayong and test your fitness in a friendly and challenging environment.,2025-03-08 23:38:10,2,Rayong,Thailand,14.480563893872786,98.12579846097672,2085,3.1,965,High,Nomads
Street Food Market in Pattaya,Food,Street Food Market in Pattaya brings together top chefs and food vendors for a taste experience like no other.,2025-01-03 22:45:12,4,Pattaya,Thailand,12.98978338163133,97.47739243223174,1564,4.8,668,Free,Everyone
Web Development Workshop in Khon Kaen,Technology,"Dive into the latest innovations at Web Development Workshop in Khon Kaen, where tech meets creativity.",2025-03-06 13:57:38,4,Khon Kaen,Thailand,14.90689793682291,101.23794087938253,4057,3.1,79,Free,Locals
Indie Rock Fest in Kanchanaburi,Music,"Join us for Indie Rock Fest in Kanchanaburi, where you'll enjoy an evening of live music and unforgettable performances.",2025-02-24 17:58:09,6,Kanchanaburi,Thailand,8.53251677449191,99.84441642346549,3821,3.4,142,High,Expats
Thai Language & Cultural Learning in Kanchanaburi,Education,Join experts at Thai Language & Cultural Learning in Kanchanaburi for insightful discussions and hands-on learning experiences.,2025-01-06 17:05:34,6,Kanchanaburi,Thailand,9.680626386617206,99.99471800986676,1168,3.9,378,High,Everyone
Marathon Challenge in Trang,Sports,Marathon Challenge in Trang is your chance to experience the thrill of competition and sportsmanship.,2025-02-09 21:48:35,6,Trang,Thailand,14.585551227934955,100.03165129168558,2541,3.1,270,Free,Expats
Theatre & Performing Arts Festival in Rayong,Arts,"Theatre & Performing Arts Festival in Rayong is a must-visit for art lovers, featuring exhibitions, workshops, and live performances.",2025-01-31 14:21:44,3,Rayong,Thailand,18.468180439366805,101.45637959739392,1933,3.7,335,Free,Expats
Web Development Workshop in Trang,Technology,"Step into the world of tomorrow at Web Development Workshop in Trang, a tech event designed for innovators.",2025-01-16 12:24:08,1,Trang,Thailand,7.807502757521323,101.2375512680915,2586,3.9,989,Medium,Locals
Motorbike Road Trip Through Chiang Mai,Travel,"Get inspired at Motorbike Road Trip Through Chiang Mai, where travel enthusiasts share their stories and experiences.",2025-02-18 16:01:37,1,Chiang Mai,Thailand,5.453927138056878,103.4200266689931,3701,4.6,922,High,Locals
Marathon Challenge in Chonburi,Sports,"Get active and meet fellow athletes at Marathon Challenge in Chonburi, perfect for beginners and pros alike.",2025-03-06 12:28:42,1,Chonburi,Thailand,13.326889862921927,99.67963753717764,4533,4.4,650,Medium,Locals
Photography & Film Showcase in Kanchanaburi,Arts,"Let your artistic side shine at Photography & Film Showcase in Kanchanaburi, where imagination knows no bounds.",2025-01-24 07:07:38,3,Kanchanaburi,Thailand,13.48546964445747,96.47349615216264,144,3.2,855,Low,Nomads
Cybersecurity Conference in Koh Samui,Technology,Cybersecurity Conference in Koh Samui is the ultimate event for aspiring developers and startup founders.,2025-02-12 09:57:59,4,Koh Samui,Thailand,14.549429173711456,96.86276348710435,4772,4.3,260,High,Everyone
Yoga & Wellness Retreat in Chiang Rai,Sports,Join us at Yoga & Wellness Retreat in Chiang Rai and test your fitness in a friendly and challenging environment.,2025-01-09 07:26:02,4,Chiang Rai,Thailand,9.592176153146845,96.99372426911754,2665,3.9,143,High,Expats
Traditional Thai Dance Performance in Ayutthaya,Arts,"Immerse yourself in creativity at Traditional Thai Dance Performance in Ayutthaya, showcasing stunning visual and performing arts.",2025-01-01 15:19:16,4,Ayutthaya,Thailand,5.124996699007325,98.06203762716868,4166,4.2,214,High,Everyone
Beach Volleyball Tournament in Bangkok,Sports,"Compete or cheer at Beach Volleyball Tournament in Bangkok, an action-packed event for sports enthusiasts.",2025-02-01 01:40:52,2,Bangkok,Thailand,5.468880393529404,96.34074851664843,723,4.7,688,Medium,Locals
AI & Blockchain Summit in Bangkok,Technology,"Dive into the latest innovations at AI & Blockchain Summit in Bangkok, where tech meets creativity.",2025-03-05 15:36:03,1,Bangkok,Thailand,16.655417894832745,100.78232910961604,507,3.6,925,Free,Everyone
Cultural Exchange & Nomad Networking in Nakhon Ratchasima,Travel,"Step into a world of exploration at Cultural Exchange & Nomad Networking in Nakhon Ratchasima, designed for those who love to roam.",2025-03-09 13:50:24,2,Nakhon Ratchasima,Thailand,11.07701648563349,101.52815168841823,96,3.8,268,Low,Everyone
Mindfulness & Meditation Retreat in Chonburi,Education,"Expand your knowledge at Mindfulness & Meditation Retreat in Chonburi, a learning event designed to inspire and educate.",2025-03-08 15:41:43,1,Chonburi,Thailand,6.041930944013373,104.88364246612258,1895,3.1,607,Low,Nomads
Motorbike Road Trip Through Trang,Travel,"Get inspired at Motorbike Road Trip Through Trang, where travel enthusiasts share their stories and experiences.",2025-01-06 09:49:42,2,Trang,Thailand,7.048672044020398,104.60062766704577,4912,3.8,951,Free,Locals
Gourmet Tasting Event in Hat Yai,Food,"Join us for Gourmet Tasting Event in Hat Yai, where you'll discover new dishes and culinary delights.",2025-01-26 01:23:06,2,Hat Yai,Thailand,13.327452917628262,97.50436243823017,3738,4.5,500,Low,Everyone
Street Art & Graffiti Fest in Koh Samui,Arts,Discover inspiring artworks and meet talented creators at Street Art & Graffiti Fest in Koh Samui.,2025-03-03 00:56:46,5,Koh Samui,Thailand,13.404585019462242,100.940665667536,3710,4.4,450,Low,Expats
Beach Volleyball Tournament in Khon Kaen,Sports,Beach Volleyball Tournament in Khon Kaen is set to bring an adrenaline rush with exciting games and activities.,2025-01-29 11:38:43,6,Khon Kaen,Thailand,10.89962659096134,100.73260153935284,3943,4.7,316,High,Locals
Electronic Dance Night in Hua Hin,Music,"Join us for Electronic Dance Night in Hua Hin, where you'll enjoy an evening of live music and unforgettable performances.",2025-03-09 09:29:44,5,Hua Hin,Thailand,19.640757731596295,104.19927189281225,2578,4.5,857,Free,Locals
Waterfalls & Jungle Trekking in Chiang Mai,Travel,Waterfalls & Jungle Trekking in Chiang Mai is your gateway to discovering hidden gems and breathtaking destinations.,2025-01-28 20:18:10,5,Chiang Mai,Thailand,18.676624623668932,98.35090388930092,2251,4.4,985,Free,Expats
Waterfalls & Jungle Trekking in Udon Thani,Travel,"Step into a world of exploration at Waterfalls & Jungle Trekking in Udon Thani, designed for those who love to roam.",2025-01-01 11:19:03,5,Udon Thani,Thailand,5.272122204003488,100.83667863643704,3284,3.8,98,Low,Expats
Muay Thai Championship in Chonburi,Sports,Muay Thai Championship in Chonburi is your chance to experience the thrill of competition and sportsmanship.,2025-02-02 18:41:07,5,Chonburi,Thailand,15.510267880275133,103.51702872538172,475,3.4,357,Medium,Nomads
Painting & Sculpture Workshop in Phuket,Arts,Discover inspiring artworks and meet talented creators at Painting & Sculpture Workshop in Phuket.,2025-01-25 13:57:58,1,Phuket,Thailand,5.600051726168256,96.45512823465496,2514,4.8,176,Low,Expats
Startup Pitch Night in Trang,Technology,"Dive into the latest innovations at Startup Pitch Night in Trang, where tech meets creativity.",2025-01-02 02:13:59,5,Trang,Thailand,12.222723011236695,99.3166129198215,1748,3.4,987,Low,Everyone
Motorbike Road Trip Through Rayong,Travel,"Join fellow explorers at Motorbike Road Trip Through Rayong, a gathering of wanderers and adventure seekers.",2025-02-23 05:58:34,1,Rayong,Thailand,13.757926297806872,101.92251544078856,3722,3.6,371,Medium,Locals
Startup Pitch Night in Koh Samui,Technology,Startup Pitch Night in Koh Samui is the ultimate event for aspiring developers and startup founders.,2025-01-15 12:44:07,6,Koh Samui,Thailand,14.985470440421357,98.19656148028938,310,3.9,244,Medium,Locals
Traditional Thai Dance Performance in Chiang Mai,Arts,"Immerse yourself in creativity at Traditional Thai Dance Performance in Chiang Mai, showcasing stunning visual and performing arts.",2025-03-05 04:12:42,3,Chiang Mai,Thailand,6.679275524294992,100.58543850319924,2837,3.7,326,Low,Everyone
Island Hopping Adventure from Chiang Rai,Travel,Island Hopping Adventure from Chiang Rai is your gateway to discovering hidden gems and breathtaking destinations.,2025-02-23 19:32:48,3,Chiang Rai,Thailand,19.229178222051505,102.10611622711592,3840,3.3,607,High,Locals
Cultural Exchange & Nomad Networking in Ayutthaya,Travel,Cultural Exchange & Nomad Networking in Ayutthaya is your gateway to discovering hidden gems and breathtaking destinations.,2025-02-09 06:17:11,1,Ayutthaya,Thailand,17.932854267990834,97.14201202902804,2527,4.9,162,Medium,Expats
Sunset Music Vibes in Khon Kaen,Music,"Sunset Music Vibes in Khon Kaen brings together music lovers for a night of indie, jazz, and electronic beats.",2025-03-17 07:02:50,4,Khon Kaen,Thailand,7.635068974504346,104.85100480319919,2743,3.3,173,Free,Locals
Sunset Music Vibes in Hua Hin,Music,"Get ready to dance the night away at Sunset Music Vibes in Hua Hin, featuring amazing artists and a lively crowd.",2025-03-04 23:58:55,1,Hua Hin,Thailand,10.236964747407608,96.92129253174022,221,5.0,264,Low,Nomads
Waterfalls & Jungle Trekking in Chonburi,Travel,Waterfalls & Jungle Trekking in Chonburi is your gateway to discovering hidden gems and breathtaking destinations.,2025-01-24 00:35:28,5,Chonburi,Thailand,7.54692992446733,100.35278868643532,2419,3.4,498,High,Expats
Acoustic Music Gathering in Ayutthaya,Music,Experience the best of Acoustic Music Gathering in Ayutthaya with top DJs and bands setting the vibe.,2025-03-04 13:46:04,4,Ayutthaya,Thailand,6.289316973316529,95.47373741168826,3774,3.4,220,High,Everyone
Waterfalls & Jungle Trekking in Pattaya,Travel,"Waterfalls & Jungle Trekking in Pattaya is all about new adventures, cultural discoveries, and unforgettable journeys.",2025-01-03 13:43:20,2,Pattaya,Thailand,18.975522378106888,102.7977272027564,998,4.5,80,High,Nomads
Financial Literacy Workshop in Rayong,Education,Join experts at Financial Literacy Workshop in Rayong for insightful discussions and hands-on learning experiences.,2025-02-05 11:26:57,3,Rayong,Thailand,6.478912090717676,98.29744388807534,3903,3.7,521,Medium,Locals
Indie Rock Fest in Bangkok,Music,"Get ready to dance the night away at Indie Rock Fest in Bangkok, featuring amazing artists and a lively crowd.",2025-02-09 13:49:12,3,Bangkok,Thailand,19.184466257107587,99.86003360194317,131,3.9,122,High,Expats
Painting & Sculpture Workshop in Khon Kaen,Arts,Discover inspiring artworks and meet talented creators at Painting & Sculpture Workshop in Khon Kaen.,2025-01-18 05:29:00,2,Khon Kaen,Thailand,7.046036104627207,100.68719389574632,3616,3.6,435,Low,Locals
Electronic Dance Night in Khon Kaen,Music,"Join us for Electronic Dance Night in Khon Kaen, where you'll enjoy an evening of live music and unforgettable performances.",2025-03-05 08:45:46,4,Khon Kaen,Thailand,7.771287041716149,95.80305614387883,629,3.8,271,High,Locals
Backpacking & Travel Stories in Surat Thani,Travel,"Join fellow explorers at Backpacking & Travel Stories in Surat Thani, a gathering of wanderers and adventure seekers.",2025-02-10 16:45:25,2,Surat Thani,Thailand,8.74707135822716,101.49681739525975,3399,4.4,902,High,Expats
Motorbike Road Trip Through Ayutthaya,Travel,"Join fellow explorers at Motorbike Road Trip Through Ayutthaya, a gathering of wanderers and adventure seekers.",2025-01-28 23:52:48,1,Ayutthaya,Thailand,18.05491036675614,98.56037528339176,330,3.9,760,High,Expats
AI & Blockchain Summit in Krabi,Technology,AI & Blockchain Summit in Krabi is the ultimate event for aspiring developers and startup founders.,2025-02-13 19:21:23,6,Krabi,Thailand,10.961256812922896,99.13724583286029,1349,3.7,601,High,Nomads
Traditional Thai Dance Performance in Hat Yai,Arts,Discover inspiring artworks and meet talented creators at Traditional Thai Dance Performance in Hat Yai.,2025-03-16 22:43:17,5,Hat Yai,Thailand,12.700648253975764,95.22511871625743,3435,4.0,408,Low,Nomads
Financial Literacy Workshop in Pattaya,Education,"Boost your expertise at Financial Literacy Workshop in Pattaya, where knowledge meets opportunity.",2025-02-09 12:48:48,4,Pattaya,Thailand,12.39526575334109,99.52632002421784,589,4.7,396,Low,Everyone
Sunset Music Vibes in Bangkok,Music,"Get ready to dance the night away at Sunset Music Vibes in Bangkok, featuring amazing artists and a lively crowd.",2025-03-11 15:37:50,1,Bangkok,Thailand,19.301098104998083,99.42154750713082,1448,3.9,373,Medium,Locals
Cybersecurity Conference in Chiang Mai,Technology,"Join industry experts at Cybersecurity Conference in Chiang Mai to discuss the future of AI, blockchain, and more.",2025-02-07 15:36:22,4,Chiang Mai,Thailand,7.939576028849226,98.34447078314338,4288,3.6,638,Low,Everyone
Waterfalls & Jungle Trekking in Kanchanaburi,Travel,Waterfalls & Jungle Trekking in Kanchanaburi is your gateway to discovering hidden gems and breathtaking destinations.,2025-02-03 20:37:15,1,Kanchanaburi,Thailand,19.763178317451757,103.59180931213265,3614,3.4,456,High,Everyone
Financial Literacy Workshop in Khon Kaen,Education,Join experts at Financial Literacy Workshop in Khon Kaen for insightful discussions and hands-on learning experiences.,2025-02-11 18:41:02,1,Khon Kaen,Thailand,9.627552675935462,101.44633081303995,1628,3.0,343,High,Nomads
Street Art & Graffiti Fest in Udon Thani,Arts,"Street Art & Graffiti Fest in Udon Thani is a must-visit for art lovers, featuring exhibitions, workshops, and live performances.",2025-03-07 15:13:00,3,Udon Thani,Thailand,17.192828584586813,98.28175195096233,1241,3.7,740,Medium,Nomads
Thai Language & Cultural Learning in Chonburi,Education,Thai Language & Cultural Learning in Chonburi offers workshops and talks on essential skills for personal and professional growth.,2025-01-11 11:04:03,2,Chonburi,Thailand,16.948623607889925,97.24419188659549,2482,4.4,216,Free,Everyone
Traditional Thai Dance Performance in Chonburi,Arts,"Traditional Thai Dance Performance in Chonburi is a must-visit for art lovers, featuring exhibitions, workshops, and live performances.",2025-03-16 09:17:41,5,Chonburi,Thailand,16.46890916792412,99.69037063323435,3389,3.6,27,Free,Everyone
Motorbike Road Trip Through Samut Prakan,Travel,"Join fellow explorers at Motorbike Road Trip Through Samut Prakan, a gathering of wanderers and adventure seekers.",2025-03-09 00:59:35,1,Samut Prakan,Thailand,7.497719403794694,98.4038063868778,2794,4.3,549,Free,Everyone
Thai Dessert & Tea Tasting in Nakhon Ratchasima,Food,Thai Dessert & Tea Tasting in Nakhon Ratchasima brings together top chefs and food vendors for a taste experience like no other.,2025-01-12 11:18:27,1,Nakhon Ratchasima,Thailand,10.88924014045173,99.1158468456255,4826,4.3,871,Free,Everyone
Motorbike Road Trip Through Phuket,Travel,"Step into a world of exploration at Motorbike Road Trip Through Phuket, designed for those who love to roam.",2025-02-28 19:31:04,1,Phuket,Thailand,14.118490602535712,103.37504711439527,1809,4.7,516,Free,Everyone
Cycling Race through Nonthaburi,Sports,"Compete or cheer at Cycling Race through Nonthaburi, an action-packed event for sports enthusiasts.",2025-01-15 23:07:17,6,Nonthaburi,Thailand,19.454587483804673,104.85256832230164,2147,3.7,450,Low,Everyone
Electronic Dance Night in Koh Samui,Music,"Join us for Electronic Dance Night in Koh Samui, where you'll enjoy an evening of live music and unforgettable performances.",2025-02-20 13:29:53,1,Koh Samui,Thailand,8.244521377456966,100.63177391445493,1081,4.0,431,Free,Everyone
Indie Rock Fest in Hua Hin,Music,Experience the best of Indie Rock Fest in Hua Hin with top DJs and bands setting the vibe.,2025-03-15 01:53:27,1,Hua Hin,Thailand,17.171884074068075,101.03861777320469,4094,3.6,456,Medium,Expats
Marathon Challenge in Bangkok,Sports,Marathon Challenge in Bangkok is set to bring an adrenaline rush with exciting games and activities.,2025-01-09 09:43:25,1,Bangkok,Thailand,15.135807660483282,103.78056234603902,551,3.3,13,Free,Expats
Thai Language & Cultural Learning in Krabi,Education,"Unlock new possibilities at Thai Language & Cultural Learning in Krabi, an event tailored for lifelong learners.",2025-02-05 22:30:19,4,Krabi,Thailand,5.973539753979443,101.84519508611659,4171,4.2,628,Free,Expats
Cybersecurity Conference in Phuket,Technology,Cybersecurity Conference in Phuket is the ultimate event for aspiring developers and startup founders.,2025-02-10 17:14:44,1,Phuket,Thailand,16.062232246336674,100.06495599839411,999,3.5,152,Free,Nomads
Traditional Thai Dance Performance in Pattaya,Arts,"Let your artistic side shine at Traditional Thai Dance Performance in Pattaya, where imagination knows no bounds.",2025-01-02 11:06:03,2,Pattaya,Thailand,14.735714835366533,95.01376411290053,2452,3.9,890,High,Expats
AI & Blockchain Summit in Kanchanaburi,Technology,"Step into the world of tomorrow at AI & Blockchain Summit in Kanchanaburi, a tech event designed for innovators.",2025-01-31 05:54:43,3,Kanchanaburi,Thailand,8.619313340570184,96.82123736976982,2547,5.0,192,Medium,Locals
Public Speaking Bootcamp in Pattaya,Education,Public Speaking Bootcamp in Pattaya offers workshops and talks on essential skills for personal and professional growth.,2025-02-12 06:52:41,3,Pattaya,Thailand,9.240284502834376,99.46010601984146,3815,4.5,746,Free,Nomads
Photography & Film Showcase in Trang,Arts,"Immerse yourself in creativity at Photography & Film Showcase in Trang, showcasing stunning visual and performing arts.",2025-03-10 18:32:20,6,Trang,Thailand,14.27517627072725,102.17104044185984,4380,4.5,132,Low,Locals
Cultural Exchange & Nomad Networking in Bangkok,Travel,"Get inspired at Cultural Exchange & Nomad Networking in Bangkok, where travel enthusiasts share their stories and experiences.",2025-01-14 09:50:37,2,Bangkok,Thailand,19.85189181848838,98.62277202524832,4692,3.7,851,Free,Expats
Sunset Music Vibes in Kanchanaburi,Music,Experience the best of Sunset Music Vibes in Kanchanaburi with top DJs and bands setting the vibe.,2025-02-17 04:29:56,6,Kanchanaburi,Thailand,12.388474506846123,96.21549392133346,4258,4.1,8,High,Expats
Web Development Workshop in Rayong,Technology,"Join industry experts at Web Development Workshop in Rayong to discuss the future of AI, blockchain, and more.",2025-01-09 21:37:57,6,Rayong,Thailand,12.603451309666298,104.04948029372554,1092,3.1,486,High,Locals
Electronic Dance Night in Nakhon Ratchasima,Music,"Celebrate your love for music at Electronic Dance Night in Nakhon Ratchasima, showcasing talented local and international musicians.",2025-01-26 12:38:44,1,Nakhon Ratchasima,Thailand,12.932170859223444,103.5288269877378,823,5.0,56,Medium,Locals
Waterfalls & Jungle Trekking in Nonthaburi,Travel,"Waterfalls & Jungle Trekking in Nonthaburi is all about new adventures, cultural discoveries, and unforgettable journeys.",2025-02-19 18:49:09,5,Nonthaburi,Thailand,8.671584722457432,96.43986455285503,2639,3.6,213,Low,Locals
International Food Festival in Samut Prakan,Food,"Satisfy your cravings at International Food Festival in Samut Prakan, featuring a variety of delicious cuisines.",2025-01-03 05:35:57,2,Samut Prakan,Thailand,14.803511283899372,99.32171748744746,3482,4.3,451,High,Everyone
Cybersecurity Conference in Hat Yai,Technology,"Step into the world of tomorrow at Cybersecurity Conference in Hat Yai, a tech event designed for innovators.",2025-02-19 20:58:28,4,Hat Yai,Thailand,8.111125735192736,96.90869228016275,4267,3.8,792,High,Nomads
Marathon Challenge in Hua Hin,Sports,"Compete or cheer at Marathon Challenge in Hua Hin, an action-packed event for sports enthusiasts.",2025-01-24 08:33:47,1,Hua Hin,Thailand,6.0335788814689195,96.06720978819222,1760,4.5,163,High,Locals
AI & Blockchain Summit in Nonthaburi,Technology,"Step into the world of tomorrow at AI & Blockchain Summit in Nonthaburi, a tech event designed for innovators.",2025-03-18 09:13:56,6,Nonthaburi,Thailand,10.83053188500792,95.48028922746335,2312,3.0,914,Free,Expats
Financial Literacy Workshop in Kanchanaburi,Education,"Boost your expertise at Financial Literacy Workshop in Kanchanaburi, where knowledge meets opportunity.",2025-03-02 07:20:41,1,Kanchanaburi,Thailand,11.702921233737234,101.99577550976848,3284,3.4,887,High,Locals
Traditional Thai Dance Performance in Rayong,Arts,Discover inspiring artworks and meet talented creators at Traditional Thai Dance Performance in Rayong.,2025-03-16 22:57:31,5,Rayong,Thailand,18.315260922371174,103.55562775038968,139,4.0,991,High,Locals
Mindfulness & Meditation Retreat in Koh Samui,Education,Join experts at Mindfulness & Meditation Retreat in Koh Samui for insightful discussions and hands-on learning experiences.,2025-01-12 20:20:29,2,Koh Samui,Thailand,11.646684974062026,104.69994025429929,618,4.4,66,High,Expats
Mindfulness & Meditation Retreat in Udon Thani,Education,Mindfulness & Meditation Retreat in Udon Thani offers workshops and talks on essential skills for personal and professional growth.,2025-02-23 19:51:00,2,Udon Thani,Thailand,14.617808619485897,96.53685909858457,3368,4.4,660,Medium,Nomads
AI & Blockchain Summit in Samut Prakan,Technology,"Step into the world of tomorrow at AI & Blockchain Summit in Samut Prakan, a tech event designed for innovators.",2025-02-21 08:29:17,6,Samut Prakan,Thailand,14.817752393536093,99.85921800987842,3891,3.1,856,High,Everyone
Painting & Sculpture Workshop in Bangkok,Arts,Discover inspiring artworks and meet talented creators at Painting & Sculpture Workshop in Bangkok.,2025-02-08 01:59:35,1,Bangkok,Thailand,5.663727858528177,96.46165149233282,1169,4.5,705,High,Locals
International Food Festival in Kanchanaburi,Food,"Join us for International Food Festival in Kanchanaburi, where you'll discover new dishes and culinary delights.",2025-02-02 09:34:44,5,Kanchanaburi,Thailand,9.826177179966464,96.27898465613151,2779,3.0,86,Low,Nomads
Photography & Film Showcase in Phuket,Arts,Experience the beauty of traditional and modern art at Photography & Film Showcase in Phuket.,2025-02-01 07:54:50,4,Phuket,Thailand,17.087332545955263,103.59402487785322,4593,3.4,984,Free,Expats
Backpacking & Travel Stories in Krabi,Travel,Backpacking & Travel Stories in Krabi is your gateway to discovering hidden gems and breathtaking destinations.,2025-03-01 14:52:57,3,Krabi,Thailand,19.29933020401692,102.63897430209612,2437,4.1,13,High,Locals
Yoga & Wellness Retreat in Samut Prakan,Sports,Join us at Yoga & Wellness Retreat in Samut Prakan and test your fitness in a friendly and challenging environment.,2025-01-12 14:40:18,5,Samut Prakan,Thailand,17.40623231319506,101.42266753476261,78,3.1,250,High,Nomads
Beach Volleyball Tournament in Chiang Mai,Sports,"Get active and meet fellow athletes at Beach Volleyball Tournament in Chiang Mai, perfect for beginners and pros alike.",2025-01-01 22:50:09,2,Chiang Mai,Thailand,13.799550824442475,102.22242647105665,4833,4.9,591,Free,Locals
Freelancing & Remote Work Seminar in Krabi,Education,Join experts at Freelancing & Remote Work Seminar in Krabi for insightful discussions and hands-on learning experiences.,2025-02-25 18:45:14,6,Krabi,Thailand,6.502734385056146,98.51056796579608,3783,3.4,525,Medium,Locals
Vegan Cooking Class in Chiang Rai,Food,Vegan Cooking Class in Chiang Rai brings together top chefs and food vendors for a taste experience like no other.,2025-01-02 04:13:33,6,Chiang Rai,Thailand,16.353965676440524,98.3113072456331,1207,4.2,598,Medium,Expats
Web Development Workshop in Pattaya,Technology,"Step into the world of tomorrow at Web Development Workshop in Pattaya, a tech event designed for innovators.",2025-01-07 00:28:36,2,Pattaya,Thailand,5.533393912610177,103.83342229887924,4079,3.2,780,Low,Expats
Island Hopping Adventure from Koh Samui,Travel,"Get inspired at Island Hopping Adventure from Koh Samui, where travel enthusiasts share their stories and experiences.",2025-03-10 08:26:30,5,Koh Samui,Thailand,15.127301080228362,102.7723230502306,2808,3.3,749,Medium,Expats
Financial Literacy Workshop in Krabi,Education,Financial Literacy Workshop in Krabi offers workshops and talks on essential skills for personal and professional growth.,2025-02-03 12:51:57,6,Krabi,Thailand,18.04873087122879,104.54588770542074,4172,4.6,556,Medium,Locals
Gourmet Tasting Event in Koh Samui,Food,"Indulge in the best flavors at Gourmet Tasting Event in Koh Samui, where food lovers gather to feast.",2025-02-15 02:44:36,4,Koh Samui,Thailand,12.843308474768596,95.08460976671861,2389,4.5,456,High,Nomads
Marathon Challenge in Kanchanaburi,Sports,Join us at Marathon Challenge in Kanchanaburi and test your fitness in a friendly and challenging environment.,2025-01-11 08:58:16,4,Kanchanaburi,Thailand,17.75288992221927,100.50459387419238,607,3.5,19,Medium,Everyone
Cybersecurity Conference in Khon Kaen,Technology,"Dive into the latest innovations at Cybersecurity Conference in Khon Kaen, where tech meets creativity.",2025-01-31 17:15:19,6,Khon Kaen,Thailand,18.824062420041862,104.39607644501001,447,4.8,445,Medium,Everyone
Live Jazz Festival in Hua Hin,Music,"Get ready to dance the night away at Live Jazz Festival in Hua Hin, featuring amazing artists and a lively crowd.",2025-02-15 21:57:38,4,Hua Hin,Thailand,16.490762178689202,99.00444233334144,1228,3.8,846,High,Everyone
Cybersecurity Conference in Pattaya,Technology,"Dive into the latest innovations at Cybersecurity Conference in Pattaya, where tech meets creativity.",2025-01-20 02:02:24,6,Pattaya,Thailand,8.990293492007073,104.14040901863109,1106,3.6,113,Low,Everyone
Backpacking & Travel Stories in Rayong,Travel,"Backpacking & Travel Stories in Rayong is all about new adventures, cultural discoveries, and unforgettable journeys.",2025-03-14 03:27:05,4,Rayong,Thailand,12.393476193345844,99.46102883040979,876,4.6,936,Low,Everyone
International Food Festival in Chiang Rai,Food,"Join us for International Food Festival in Chiang Rai, where you'll discover new dishes and culinary delights.",2025-01-10 09:38:46,5,Chiang Rai,Thailand,7.494920275747589,103.4588080310981,4533,4.7,677,High,Everyone
Gourmet Tasting Event in Phuket,Food,"Foodies, don’t miss Gourmet Tasting Event in Phuket, the ultimate festival for street food and gourmet treats.",2025-02-18 02:08:38,1,Phuket,Thailand,8.782148862864261,95.2960805780164,911,3.8,659,Free,Locals
Financial Literacy Workshop in Phuket,Education,Join experts at Financial Literacy Workshop in Phuket for insightful discussions and hands-on learning experiences.,2025-03-11 23:49:34,5,Phuket,Thailand,16.40018572915399,96.89579990311692,1305,3.9,410,Low,Locals
Muay Thai Championship in Nakhon Ratchasima,Sports,Muay Thai Championship in Nakhon Ratchasima is set to bring an adrenaline rush with exciting games and activities.,2025-02-06 18:12:26,5,Nakhon Ratchasima,Thailand,8.693817207580423,103.47000231231095,4122,3.3,610,Free,Nomads
Painting & Sculpture Workshop in Udon Thani,Arts,Experience the beauty of traditional and modern art at Painting & Sculpture Workshop in Udon Thani.,2025-01-07 06:51:53,1,Udon Thani,Thailand,13.926968378776797,102.26885408756854,1160,3.9,901,Low,Everyone
Public Speaking Bootcamp in Chiang Mai,Education,"Unlock new possibilities at Public Speaking Bootcamp in Chiang Mai, an event tailored for lifelong learners.",2025-01-20 06:33:14,4,Chiang Mai,Thailand,17.929590769997507,101.5000408418806,3257,4.6,93,Low,Nomads
Street Food Market in Koh Samui,Food,"Join us for Street Food Market in Koh Samui, where you'll discover new dishes and culinary delights.",2025-02-18 14:36:14,3,Koh Samui,Thailand,16.259523598298642,104.58308224638236,4713,3.6,213,Low,Nomads
Live Jazz Festival in Trang,Music,"Join us for Live Jazz Festival in Trang, where you'll enjoy an evening of live music and unforgettable performances.",2025-02-15 13:01:37,6,Trang,Thailand,15.919228652850084,103.28587490673281,4493,4.7,954,Medium,Nomads
Thai Language & Cultural Learning in Bangkok,Education,Thai Language & Cultural Learning in Bangkok offers workshops and talks on essential skills for personal and professional growth.,2025-02-25 17:48:12,5,Bangkok,Thailand,9.105066408274109,102.27854656189461,1744,3.3,964,Medium,Everyone
Traditional Thai Dance Performance in Chiang Rai,Arts,"Let your artistic side shine at Traditional Thai Dance Performance in Chiang Rai, where imagination knows no bounds.",2025-01-20 16:22:05,2,Chiang Rai,Thailand,15.509682310522374,97.33515552811853,297,3.4,675,Medium,Locals
Street Food Market in Hat Yai,Food,"Join us for Street Food Market in Hat Yai, where you'll discover new dishes and culinary delights.",2025-01-14 00:14:23,1,Hat Yai,Thailand,15.433204838856263,103.76795655948746,1083,4.5,912,Medium,Expats
International Food Festival in Pattaya,Food,"Join us for International Food Festival in Pattaya, where you'll discover new dishes and culinary delights.",2025-01-12 21:59:03,1,Pattaya,Thailand,18.81310749154691,99.07790856175905,303,3.6,415,Low,Nomads
Public Speaking Bootcamp in Chiang Rai,Education,"Expand your knowledge at Public Speaking Bootcamp in Chiang Rai, a learning event designed to inspire and educate.",2025-01-26 18:22:03,5,Chiang Rai,Thailand,13.865846167371668,102.59719177355919,3713,5.0,812,High,Everyone
Web Development Workshop in Udon Thani,Technology,"Join industry experts at Web Development Workshop in Udon Thani to discuss the future of AI, blockchain, and more.",2025-01-03 14:53:19,6,Udon Thani,Thailand,16.825077273400236,102.84334738555073,3248,4.7,436,High,Locals
Acoustic Music Gathering in Trang,Music,"Get ready to dance the night away at Acoustic Music Gathering in Trang, featuring amazing artists and a lively crowd.",2025-03-07 00:56:39,1,Trang,Thailand,5.886430534200996,95.79670158795447,544,4.0,133,Medium,Locals
Theatre & Performing Arts Festival in Kanchanaburi,Arts,"Immerse yourself in creativity at Theatre & Performing Arts Festival in Kanchanaburi, showcasing stunning visual and performing arts.",2025-03-12 06:43:16,3,Kanchanaburi,Thailand,6.2099468249123735,99.86016167531727,1721,4.8,446,High,Everyone
Backpacking & Travel Stories in Hua Hin,Travel,"Get inspired at Backpacking & Travel Stories in Hua Hin, where travel enthusiasts share their stories and experiences.",2025-02-18 17:28:10,6,Hua Hin,Thailand,5.9132866346949156,96.66707618605577,4131,3.9,244,Medium,Everyone
Freelancing & Remote Work Seminar in Ayutthaya,Education,Join experts at Freelancing & Remote Work Seminar in Ayutthaya for insightful discussions and hands-on learning experiences.,2025-01-26 13:39:01,3,Ayutthaya,Thailand,16.60574158024165,99.00583375601835,4912,3.4,938,Low,Nomads
Public Speaking Bootcamp in Udon Thani,Education,Public Speaking Bootcamp in Udon Thani offers workshops and talks on essential skills for personal and professional growth.,2025-01-15 10:58:41,1,Udon Thani,Thailand,17.006529526089587,100.89155068221714,4587,3.8,218,Free,Everyone
Island Hopping Adventure from Khon Kaen,Travel,"Get inspired at Island Hopping Adventure from Khon Kaen, where travel enthusiasts share their stories and experiences.",2025-01-23 10:36:09,2,Khon Kaen,Thailand,18.971426284033086,98.99057588719101,1606,3.8,476,Free,Locals
Motorbike Road Trip Through Khon Kaen,Travel,Motorbike Road Trip Through Khon Kaen is your gateway to discovering hidden gems and breathtaking destinations.,2025-01-12 10:58:51,3,Khon Kaen,Thailand,7.479496586500769,100.85702658851682,2147,4.3,532,Medium,Expats
Electronic Dance Night in Surat Thani,Music,Experience the best of Electronic Dance Night in Surat Thani with top DJs and bands setting the vibe.,2025-01-28 09:16:33,6,Surat Thani,Thailand,15.781210171858763,101.37247225151201,1876,4.3,298,Free,Expats
Gourmet Tasting Event in Trang,Food,"Join us for Gourmet Tasting Event in Trang, where you'll discover new dishes and culinary delights.",2025-02-28 07:38:23,4,Trang,Thailand,17.95793250161464,99.64330158667588,4507,3.3,377,Low,Everyone
Data Science Hackathon in Samut Prakan,Technology,"Data Science Hackathon in Samut Prakan is the place to learn, network, and explore groundbreaking tech solutions.",2025-03-03 07:08:15,2,Samut Prakan,Thailand,11.709907971714138,95.6439362998357,432,4.2,884,Medium,Nomads
Sunset Music Vibes in Udon Thani,Music,"Join us for Sunset Music Vibes in Udon Thani, where you'll enjoy an evening of live music and unforgettable performances.",2025-01-30 17:48:47,2,Udon Thani,Thailand,16.24749556254718,98.62351677828221,4887,3.9,566,Free,Nomads
Yoga & Wellness Retreat in Nakhon Ratchasima,Sports,"Get active and meet fellow athletes at Yoga & Wellness Retreat in Nakhon Ratchasima, perfect for beginners and pros alike.",2025-03-01 08:02:11,5,Nakhon Ratchasima,Thailand,14.784974694746401,98.33027248881642,880,4.6,302,Free,Expats
Theatre & Performing Arts Festival in Krabi,Arts,Experience the beauty of traditional and modern art at Theatre & Performing Arts Festival in Krabi.,2025-01-13 20:57:50,1,Krabi,Thailand,5.581836959986258,98.06910548886856,2851,3.8,638,Medium,Everyone
Street Art & Graffiti Fest in Rayong,Arts,Experience the beauty of traditional and modern art at Street Art & Graffiti Fest in Rayong.,2025-03-14 22:24:58,5,Rayong,Thailand,7.939327814015176,95.98103261061001,1968,3.0,751,Medium,Locals
Gourmet Tasting Event in Chonburi,Food,Gourmet Tasting Event in Chonburi brings together top chefs and food vendors for a taste experience like no other.,2025-01-02 10:48:37,4,Chonburi,Thailand,14.699795349020155,102.45163344856023,4863,3.9,116,Medium,Expats
Cycling Race through Trang,Sports,Cycling Race through Trang is set to bring an adrenaline rush with exciting games and activities.,2025-01-27 18:21:25,2,Trang,Thailand,14.252159852276368,102.42058597241851,2402,4.3,486,High,Nomads
Street Art & Graffiti Fest in Hat Yai,Arts,Experience the beauty of traditional and modern art at Street Art & Graffiti Fest in Hat Yai.,2025-02-17 17:55:10,2,Hat Yai,Thailand,13.559311964609146,99.07716636536081,4432,3.1,505,High,Everyone
Island Hopping Adventure from Rayong,Travel,"Step into a world of exploration at Island Hopping Adventure from Rayong, designed for those who love to roam.",2025-02-26 15:56:29,4,Rayong,Thailand,16.72943650559842,101.80679735256359,2850,3.1,602,High,Everyone
Street Food Market in Kanchanaburi,Food,"Satisfy your cravings at Street Food Market in Kanchanaburi, featuring a variety of delicious cuisines.",2025-01-06 19:53:40,5,Kanchanaburi,Thailand,19.883361246561574,104.84298057960403,1752,4.1,787,High,Expats
Cultural Exchange & Nomad Networking in Khon Kaen,Travel,"Cultural Exchange & Nomad Networking in Khon Kaen is all about new adventures, cultural discoveries, and unforgettable journeys.",2025-01-30 02:37:53,4,Khon Kaen,Thailand,9.21086672478512,102.42444021231458,3267,3.7,51,Low,Nomads
Thai Dessert & Tea Tasting in Bangkok,Food,"Satisfy your cravings at Thai Dessert & Tea Tasting in Bangkok, featuring a variety of delicious cuisines.",2025-01-14 16:54:30,5,Bangkok,Thailand,18.272514995628953,95.63600430053286,4323,5.0,733,Medium,Everyone
Beach Volleyball Tournament in Nakhon Ratchasima,Sports,Join us at Beach Volleyball Tournament in Nakhon Ratchasima and test your fitness in a friendly and challenging environment.,2025-01-05 06:03:37,1,Nakhon Ratchasima,Thailand,18.31841924622391,100.33582225044111,1372,3.3,526,Medium,Expats
Street Art & Graffiti Fest in Surat Thani,Arts,Discover inspiring artworks and meet talented creators at Street Art & Graffiti Fest in Surat Thani.,2025-03-01 00:53:11,4,Surat Thani,Thailand,17.987870047214212,100.14448047510594,4297,3.4,235,Medium,Expats
Financial Literacy Workshop in Chonburi,Education,"Unlock new possibilities at Financial Literacy Workshop in Chonburi, an event tailored for lifelong learners.",2025-02-24 14:28:56,3,Chonburi,Thailand,18.505961247734618,99.6592964858326,2185,4.1,995,Free,Locals
Photography & Film Showcase in Bangkok,Arts,"Let your artistic side shine at Photography & Film Showcase in Bangkok, where imagination knows no bounds.",2025-02-11 10:13:14,1,Bangkok,Thailand,12.158600649931474,96.5808008668427,4992,4.8,366,Low,Locals
Web Development Workshop in Nakhon Ratchasima,Technology,Web Development Workshop in Nakhon Ratchasima is the ultimate event for aspiring developers and startup founders.,2025-02-05 18:55:08,4,Nakhon Ratchasima,Thailand,11.25276721417772,101.62933147152737,4235,4.7,799,Medium,Everyone
Gourmet Tasting Event in Surat Thani,Food,"Satisfy your cravings at Gourmet Tasting Event in Surat Thani, featuring a variety of delicious cuisines.",2025-01-18 19:39:32,2,Surat Thani,Thailand,14.156092301708453,96.98354605206765,3953,3.9,563,High,Expats
Acoustic Music Gathering in Khon Kaen,Music,Experience the best of Acoustic Music Gathering in Khon Kaen with top DJs and bands setting the vibe.,2025-03-09 01:56:12,6,Khon Kaen,Thailand,11.845956053185219,98.45864320027233,2163,4.2,431,Medium,Everyone
Web Development Workshop in Hua Hin,Technology,Web Development Workshop in Hua Hin is the ultimate event for aspiring developers and startup founders.,2025-01-08 09:27:28,2,Hua Hin,Thailand,13.642583777814282,98.04207659135872,3321,3.7,233,Free,Nomads
Sunset Music Vibes in Trang,Music,"Join us for Sunset Music Vibes in Trang, where you'll enjoy an evening of live music and unforgettable performances.",2025-03-07 20:48:57,6,Trang,Thailand,19.674895654589196,97.81014138773557,1448,4.5,695,High,Locals
Street Food Market in Ayutthaya,Food,"Join us for Street Food Market in Ayutthaya, where you'll discover new dishes and culinary delights.",2025-03-11 21:31:00,5,Ayutthaya,Thailand,19.23224853313466,96.36524683558467,2723,4.2,383,High,Locals
International Food Festival in Khon Kaen,Food,International Food Festival in Khon Kaen brings together top chefs and food vendors for a taste experience like no other.,2025-01-21 10:34:43,1,Khon Kaen,Thailand,7.303506069810135,95.2606593688602,2926,3.4,461,Low,Expats
Island Hopping Adventure from Nonthaburi,Travel,"Get inspired at Island Hopping Adventure from Nonthaburi, where travel enthusiasts share their stories and experiences.",2025-02-23 03:09:50,1,Nonthaburi,Thailand,15.154908410634453,95.31373858591475,1614,3.3,248,Low,Expats
Street Art & Graffiti Fest in Kanchanaburi,Arts,Experience the beauty of traditional and modern art at Street Art & Graffiti Fest in Kanchanaburi.,2025-02-03 19:49:48,3,Kanchanaburi,Thailand,18.520092105381064,99.63710872089699,4126,4.2,632,High,Nomads
Financial Literacy Workshop in Chiang Rai,Education,Join experts at Financial Literacy Workshop in Chiang Rai for insightful discussions and hands-on learning experiences.,2025-03-11 19:20:52,4,Chiang Rai,Thailand,16.026937843758887,96.18410748853024,178,4.8,552,Medium,Locals
Electronic Dance Night in Chonburi,Music,"Celebrate your love for music at Electronic Dance Night in Chonburi, showcasing talented local and international musicians.",2025-01-15 16:59:45,5,Chonburi,Thailand,16.064821149768214,104.65836844714977,4237,4.9,44,Free,Locals
Painting & Sculpture Workshop in Kanchanaburi,Arts,"Let your artistic side shine at Painting & Sculpture Workshop in Kanchanaburi, where imagination knows no bounds.",2025-03-15 19:01:14,5,Kanchanaburi,Thailand,11.367403323972194,100.33866138015874,1574,4.5,520,High,Expats
Island Hopping Adventure from Surat Thani,Travel,"Join fellow explorers at Island Hopping Adventure from Surat Thani, a gathering of wanderers and adventure seekers.",2025-01-14 07:40:22,4,Surat Thani,Thailand,5.928758009350559,103.91349439140616,3101,3.3,281,Low,Expats
Acoustic Music Gathering in Nonthaburi,Music,"Join us for Acoustic Music Gathering in Nonthaburi, where you'll enjoy an evening of live music and unforgettable performances.",2025-02-24 18:31:07,6,Nonthaburi,Thailand,10.123565077201626,104.69318153327704,2840,4.6,532,Free,Locals
Beach Volleyball Tournament in Surat Thani,Sports,Beach Volleyball Tournament in Surat Thani is your chance to experience the thrill of competition and sportsmanship.,2025-03-18 00:27:03,2,Surat Thani,Thailand,10.070944193792528,102.7529024404141,1647,3.2,122,Low,Expats
Beach Volleyball Tournament in Chiang Rai,Sports,Beach Volleyball Tournament in Chiang Rai is your chance to experience the thrill of competition and sportsmanship.,2025-03-17 12:47:07,1,Chiang Rai,Thailand,6.013478139625608,104.90411044801286,2574,3.4,560,Low,Nomads
Startup Pitch Night in Khon Kaen,Technology,Startup Pitch Night in Khon Kaen is the ultimate event for aspiring developers and startup founders.,2025-02-28 23:38:56,6,Khon Kaen,Thailand,18.136719630983528,104.62355587933223,3887,5.0,811,Free,Expats
Marathon Challenge in Samut Prakan,Sports,"Compete or cheer at Marathon Challenge in Samut Prakan, an action-packed event for sports enthusiasts.",2025-02-05 02:42:02,4,Samut Prakan,Thailand,11.96561722507692,104.67912385742673,1530,3.4,943,High,Expats
Data Science Hackathon in Nakhon Ratchasima,Technology,"Dive into the latest innovations at Data Science Hackathon in Nakhon Ratchasima, where tech meets creativity.",2025-02-11 17:28:34,6,Nakhon Ratchasima,Thailand,19.292280560984686,96.05603707812514,2109,5.0,170,Medium,Everyone
Theatre & Performing Arts Festival in Phuket,Arts,"Let your artistic side shine at Theatre & Performing Arts Festival in Phuket, where imagination knows no bounds.",2025-02-15 12:36:24,2,Phuket,Thailand,5.0606064580206835,104.5396648067839,3865,4.5,647,Medium,Locals
AI & Blockchain Summit in Hua Hin,Technology,AI & Blockchain Summit in Hua Hin is the ultimate event for aspiring developers and startup founders.,2025-03-18 11:38:31,4,Hua Hin,Thailand,16.05656349361218,100.29457279339809,2192,3.6,8,Free,Nomads
Data Science Hackathon in Chiang Rai,Technology,Data Science Hackathon in Chiang Rai is the ultimate event for aspiring developers and startup founders.,2025-01-28 22:13:49,4,Chiang Rai,Thailand,7.82753879635349,95.3471015671197,2388,4.8,505,Low,Everyone
Painting & Sculpture Workshop in Chiang Mai,Arts,Discover inspiring artworks and meet talented creators at Painting & Sculpture Workshop in Chiang Mai.,2025-02-20 02:06:53,6,Chiang Mai,Thailand,17.888162508016666,95.6451908338377,3342,4.3,661,Low,Everyone
Financial Literacy Workshop in Bangkok,Education,Join experts at Financial Literacy Workshop in Bangkok for insightful discussions and hands-on learning experiences.,2025-01-19 05:00:38,3,Bangkok,Thailand,14.952860614629262,99.49975481946221,3069,4.5,617,High,Expats
Cultural Exchange & Nomad Networking in Kanchanaburi,Travel,"Step into a world of exploration at Cultural Exchange & Nomad Networking in Kanchanaburi, designed for those who love to roam.",2025-01-12 11:36:02,2,Kanchanaburi,Thailand,18.295639357058256,101.0903984850638,513,4.8,105,Free,Everyone
Mindfulness & Meditation Retreat in Khon Kaen,Education,"Boost your expertise at Mindfulness & Meditation Retreat in Khon Kaen, where knowledge meets opportunity.",2025-01-16 11:36:23,5,Khon Kaen,Thailand,6.987394286070304,100.6880487106091,3788,4.5,103,High,Expats
Live Jazz Festival in Hat Yai,Music,"Celebrate your love for music at Live Jazz Festival in Hat Yai, showcasing talented local and international musicians.",2025-01-23 17:39:51,5,Hat Yai,Thailand,10.650577636209292,99.99211632312944,743,4.0,869,Medium,Locals
Backpacking & Travel Stories in Ayutthaya,Travel,"Get inspired at Backpacking & Travel Stories in Ayutthaya, where travel enthusiasts share their stories and experiences.",2025-02-07 23:20:59,1,Ayutthaya,Thailand,5.404424191330497,98.24275202755288,3528,3.7,359,Free,Locals
Traditional Thai Dance Performance in Nonthaburi,Arts,Experience the beauty of traditional and modern art at Traditional Thai Dance Performance in Nonthaburi.,2025-02-21 14:00:30,5,Nonthaburi,Thailand,6.2826444596886795,96.34979867743213,3029,3.1,760,High,Locals
Thai Language & Cultural Learning in Chiang Mai,Education,"Expand your knowledge at Thai Language & Cultural Learning in Chiang Mai, a learning event designed to inspire and educate.",2025-02-06 08:48:29,4,Chiang Mai,Thailand,11.600590947340395,102.87368229625018,3456,3.5,324,Free,Everyone
Thai Dessert & Tea Tasting in Hat Yai,Food,"Satisfy your cravings at Thai Dessert & Tea Tasting in Hat Yai, featuring a variety of delicious cuisines.",2025-01-30 20:03:52,1,Hat Yai,Thailand,18.310980218012126,101.92383077048235,4937,3.5,936,Free,Everyone
Acoustic Music Gathering in Chiang Mai,Music,"Join us for Acoustic Music Gathering in Chiang Mai, where you'll enjoy an evening of live music and unforgettable performances.",2025-03-10 05:05:04,5,Chiang Mai,Thailand,17.668846641840013,99.94535402429413,3596,3.4,761,Free,Nomads
Backpacking & Travel Stories in Udon Thani,Travel,Backpacking & Travel Stories in Udon Thani is your gateway to discovering hidden gems and breathtaking destinations.,2025-03-01 00:07:33,4,Udon Thani,Thailand,12.175037614135327,104.39221807368156,838,4.9,641,Free,Locals
Data Science Hackathon in Phuket,Technology,"Dive into the latest innovations at Data Science Hackathon in Phuket, where tech meets creativity.",2025-03-05 05:14:53,6,Phuket,Thailand,19.854313202670504,99.54735723591189,1495,3.7,248,High,Locals
Street Art & Graffiti Fest in Chiang Mai,Arts,"Street Art & Graffiti Fest in Chiang Mai is a must-visit for art lovers, featuring exhibitions, workshops, and live performances.",2025-03-04 16:30:17,3,Chiang Mai,Thailand,9.125470289485703,104.76166712031818,659,4.5,888,Medium,Nomads
Vegan Cooking Class in Surat Thani,Food,"Join us for Vegan Cooking Class in Surat Thani, where you'll discover new dishes and culinary delights.",2025-02-05 02:43:50,1,Surat Thani,Thailand,6.9168363410184455,100.32902858103823,3481,3.3,908,High,Locals
Data Science Hackathon in Nonthaburi,Technology,"Step into the world of tomorrow at Data Science Hackathon in Nonthaburi, a tech event designed for innovators.",2025-03-04 12:25:25,6,Nonthaburi,Thailand,13.933546295078525,98.93081114351052,2012,3.1,524,High,Everyone
Cultural Exchange & Nomad Networking in Udon Thani,Travel,"Join fellow explorers at Cultural Exchange & Nomad Networking in Udon Thani, a gathering of wanderers and adventure seekers.",2025-02-03 07:59:30,5,Udon Thani,Thailand,18.880782467902726,101.68283809912498,53,4.3,839,Medium,Locals
Street Food Market in Udon Thani,Food,"Satisfy your cravings at Street Food Market in Udon Thani, featuring a variety of delicious cuisines.",2025-01-31 14:07:56,2,Udon Thani,Thailand,9.802635673092235,100.58303650077576,1632,3.1,373,Medium,Expats
Photography & Film Showcase in Surat Thani,Arts,Discover inspiring artworks and meet talented creators at Photography & Film Showcase in Surat Thani.,2025-02-17 02:45:45,2,Surat Thani,Thailand,12.398199281787985,98.31161527623514,2135,4.8,551,Medium,Nomads
Electronic Dance Night in Kanchanaburi,Music,Experience the best of Electronic Dance Night in Kanchanaburi with top DJs and bands setting the vibe.,2025-01-21 10:19:07,5,Kanchanaburi,Thailand,13.551858215915322,102.7845215123697,1668,4.3,678,Low,Nomads
Muay Thai Championship in Ayutthaya,Sports,Join us at Muay Thai Championship in Ayutthaya and test your fitness in a friendly and challenging environment.,2025-03-12 06:16:57,1,Ayutthaya,Thailand,8.760636663912685,102.65704893403195,3252,4.4,404,High,Everyone
Live Jazz Festival in Khon Kaen,Music,"Celebrate your love for music at Live Jazz Festival in Khon Kaen, showcasing talented local and international musicians.",2025-03-18 15:41:19,1,Khon Kaen,Thailand,7.487438558903717,104.93685013264597,152,4.6,977,Low,Nomads
Yoga & Wellness Retreat in Hat Yai,Sports,Join us at Yoga & Wellness Retreat in Hat Yai and test your fitness in a friendly and challenging environment.,2025-03-16 13:46:15,1,Hat Yai,Thailand,7.8644311752192575,102.0684621511594,4428,3.6,783,Low,Everyone
AI & Blockchain Summit in Trang,Technology,"Join industry experts at AI & Blockchain Summit in Trang to discuss the future of AI, blockchain, and more.",2025-02-26 15:18:35,4,Trang,Thailand,8.820465940672259,99.43165173115544,1737,4.3,223,Medium,Locals
Yoga & Wellness Retreat in Udon Thani,Sports,Yoga & Wellness Retreat in Udon Thani is set to bring an adrenaline rush with exciting games and activities.,2025-01-11 13:59:36,6,Udon Thani,Thailand,15.001070861839416,99.3361157553259,1781,3.7,481,Low,Nomads
Marathon Challenge in Pattaya,Sports,"Get active and meet fellow athletes at Marathon Challenge in Pattaya, perfect for beginners and pros alike.",2025-02-12 12:39:16,5,Pattaya,Thailand,12.119513542641133,100.91275500001414,223,4.9,203,High,Locals
AI & Blockchain Summit in Khon Kaen,Technology,"Dive into the latest innovations at AI & Blockchain Summit in Khon Kaen, where tech meets creativity.",2025-03-10 11:38:09,3,Khon Kaen,Thailand,19.237971924152202,103.38747920074331,3083,3.0,393,Free,Expats
Indie Rock Fest in Phuket,Music,"Get ready to dance the night away at Indie Rock Fest in Phuket, featuring amazing artists and a lively crowd.",2025-01-17 06:28:50,6,Phuket,Thailand,6.6131736301603095,100.13584497361727,4875,4.8,846,Low,Locals
Waterfalls & Jungle Trekking in Krabi,Travel,"Waterfalls & Jungle Trekking in Krabi is all about new adventures, cultural discoveries, and unforgettable journeys.",2025-03-13 07:29:54,1,Krabi,Thailand,9.565160100500513,95.22785641005373,2898,4.7,634,High,Expats
Thai Language & Cultural Learning in Koh Samui,Education,Thai Language & Cultural Learning in Koh Samui offers workshops and talks on essential skills for personal and professional growth.,2025-03-03 22:01:17,3,Koh Samui,Thailand,16.67577728404066,99.41251405106509,4516,3.3,587,High,Expats
Electronic Dance Night in Ayutthaya,Music,"Get ready to dance the night away at Electronic Dance Night in Ayutthaya, featuring amazing artists and a lively crowd.",2025-02-05 04:54:01,4,Ayutthaya,Thailand,5.587329499732176,103.7008236787946,2263,4.3,647,Medium,Locals
Startup Pitch Night in Hua Hin,Technology,"Step into the world of tomorrow at Startup Pitch Night in Hua Hin, a tech event designed for innovators.",2025-01-11 05:29:10,2,Hua Hin,Thailand,7.062522351171046,104.87569060718222,4425,4.3,400,Free,Everyone
Street Art & Graffiti Fest in Chonburi,Arts,"Street Art & Graffiti Fest in Chonburi is a must-visit for art lovers, featuring exhibitions, workshops, and live performances.",2025-02-15 02:59:54,1,Chonburi,Thailand,18.641524763795413,99.94150738851448,464,3.2,362,High,Locals
Backpacking & Travel Stories in Nonthaburi,Travel,"Backpacking & Travel Stories in Nonthaburi is all about new adventures, cultural discoveries, and unforgettable journeys.",2025-03-12 05:37:23,4,Nonthaburi,Thailand,8.913059612697811,102.97310613398425,905,3.5,418,Medium,Locals
Vegan Cooking Class in Trang,Food,Vegan Cooking Class in Trang brings together top chefs and food vendors for a taste experience like no other.,2025-02-18 12:16:27,3,Trang,Thailand,16.68057131253036,104.73848769247085,2642,4.8,300,Medium,Everyone
Startup Pitch Night in Pattaya,Technology,"Join industry experts at Startup Pitch Night in Pattaya to discuss the future of AI, blockchain, and more.",2025-02-09 05:28:02,6,Pattaya,Thailand,10.331710021515148,104.66440393658574,22,3.8,865,High,Everyone
Indie Rock Fest in Nakhon Ratchasima,Music,"Indie Rock Fest in Nakhon Ratchasima brings together music lovers for a night of indie, jazz, and electronic beats.",2025-01-03 13:16:38,5,Nakhon Ratchasima,Thailand,7.832296933156566,100.9450053902557,17,4.2,462,Low,Nomads
Thai Dessert & Tea Tasting in Rayong,Food,"Satisfy your cravings at Thai Dessert & Tea Tasting in Rayong, featuring a variety of delicious cuisines.",2025-02-18 01:56:04,5,Rayong,Thailand,13.229946425951017,101.26823953091147,2170,3.3,878,Free,Locals
Freelancing & Remote Work Seminar in Nakhon Ratchasima,Education,"Unlock new possibilities at Freelancing & Remote Work Seminar in Nakhon Ratchasima, an event tailored for lifelong learners.",2025-02-18 15:53:47,5,Nakhon Ratchasima,Thailand,8.706981725315863,99.68934794428009,3166,4.0,172,Medium,Nomads
Startup Pitch Night in Kanchanaburi,Technology,"Step into the world of tomorrow at Startup Pitch Night in Kanchanaburi, a tech event designed for innovators.",2025-01-25 17:59:07,6,Kanchanaburi,Thailand,18.23301011903023,103.10776005123269,1030,4.1,752,High,Locals
Live Jazz Festival in Bangkok,Music,Experience the best of Indie Rock Fest in Bangkok with top DJs and bands setting the vibe.,2025-03-14 03:34:42,1,Bangkok,Thailand,13.90351220382825,103.655674555823,591,4.8,760,Low,Expats
Electronic Dance Night in Bangkok,Music,"Get ready to dance the night away at Indie Rock Fest in Bangkok, featuring amazing artists and a lively crowd.",2025-01-12 02:51:05,2,Bangkok,Thailand,17.90510785829017,98.45742086382049,4812,4.9,262,High,Nomads
Acoustic Music Gathering in Bangkok,Music,"Celebrate your love for music at Sunset Music Vibes in Bangkok, showcasing talented local and international musicians.",2025-03-08 22:01:39,1,Bangkok,Thailand,12.305040362071338,95.90606867636824,1179,4.0,302,High,Locals
Muay Thai Championship in Bangkok,Sports,"Compete or cheer at Beach Volleyball Tournament in Bangkok, an action-packed event for sports enthusiasts.",2025-03-15 23:09:10,6,Bangkok,Thailand,5.4206144408688655,104.48050904979769,333,4.6,744,Free,Locals
Cycling Race through Bangkok,Sports,Cycling Race through Bangkok is your chance to experience the thrill of competition and sportsmanship.,2025-02-23 19:30:19,1,Bangkok,Thailand,16.270791725205786,95.54780524012813,1364,4.1,242,Low,Expats
Yoga & Wellness Retreat in Bangkok,Sports,"Get active and meet fellow athletes at Beach Volleyball Tournament in Bangkok, perfect for beginners and pros alike.",2025-02-12 11:40:46,6,Bangkok,Thailand,15.050778372255117,99.41921309429823,2686,4.2,853,Medium,Locals
Startup Pitch Night in Bangkok,Technology,"Step into the world of tomorrow at AI & Blockchain Summit in Bangkok, a tech event designed for innovators.",2025-02-18 20:18:02,1,Bangkok,Thailand,18.278588018516015,104.21750051686244,4811,3.6,263,High,Locals
Data Science Hackathon in Bangkok,Technology,"Join industry experts at Startup Pitch Night in Bangkok to discuss the future of AI, blockchain, and more.",2025-03-12 21:15:09,3,Bangkok,Thailand,14.052643034680338,98.33495316175112,1241,4.1,725,Free,Locals
Cybersecurity Conference in Bangkok,Technology,"Cybersecurity Conference in Bangkok is the place to learn, network, and explore groundbreaking tech solutions.",2025-02-04 06:37:54,4,Bangkok,Thailand,7.784642003213959,96.94697479071671,4683,3.6,572,High,Locals
Web Development Workshop in Bangkok,Technology,Startup Pitch Night in Bangkok is the ultimate event for aspiring developers and startup founders.,2025-01-01 14:55:46,1,Bangkok,Thailand,19.99839785392283,103.5997338050744,4652,4.9,978,High,Nomads
Theatre & Performing Arts Festival in Bangkok,Arts,Experience the beauty of traditional and modern art at Theatre & Performing Arts Festival in Bangkok.,2025-01-01 22:41:11,2,Bangkok,Thailand,8.541219580537327,97.43372571299821,4501,3.7,220,High,Everyone
Street Art & Graffiti Fest in Bangkok,Arts,"Theatre & Performing Arts Festival in Bangkok is a must-visit for art lovers, featuring exhibitions, workshops, and live performances.",2025-02-13 17:43:52,5,Bangkok,Thailand,9.827470323948631,99.04167628549901,1254,4.1,248,Free,Nomads
Traditional Thai Dance Performance in Bangkok,Arts,"Let your artistic side shine at Painting & Sculpture Workshop in Bangkok, where imagination knows no bounds.",2025-01-03 22:17:13,5,Bangkok,Thailand,14.061906483163154,98.85107646935023,1740,4.2,681,Free,Locals
Gourmet Tasting Event in Bangkok,Food,Gourmet Tasting Event in Bangkok brings together top chefs and food vendors for a taste experience like no other.,2025-02-23 02:33:59,5,Bangkok,Thailand,18.79966202935165,102.0786643191684,2694,3.7,237,Free,Expats
Street Food Market in Bangkok,Food,"Satisfy your cravings at Street Food Market in Bangkok, featuring a variety of delicious cuisines.",2025-03-13 03:28:01,6,Bangkok,Thailand,11.778286708537546,100.59330272524564,1068,3.4,734,High,Expats
Vegan Cooking Class in Bangkok,Food,"Satisfy your cravings at Gourmet Tasting Event in Bangkok, featuring a variety of delicious cuisines.",2025-01-20 02:48:17,2,Bangkok,Thailand,9.497841209924982,96.98191486281809,809,3.7,985,Free,Expats
International Food Festival in Bangkok,Food,Gourmet Tasting Event in Bangkok brings together top chefs and food vendors for a taste experience like no other.,2025-01-09 01:50:32,3,Bangkok,Thailand,18.202916252502348,99.71098092937713,253,4.7,147,Low,Locals
Mindfulness & Meditation Retreat in Bangkok,Education,Financial Literacy Workshop in Bangkok offers workshops and talks on essential skills for personal and professional growth.,2025-01-17 18:59:39,6,Bangkok,Thailand,16.209517760532673,98.53349586333354,3359,4.9,566,High,Locals
Public Speaking Bootcamp in Bangkok,Education,"Boost your expertise at Public Speaking Bootcamp in Bangkok, where knowledge meets opportunity.",2025-03-05 23:52:06,2,Bangkok,Thailand,11.624146419483235,98.16415131799148,3644,4.2,917,High,Expats
Freelancing & Remote Work Seminar in Bangkok,Education,"Boost your expertise at Thai Language & Cultural Learning in Bangkok, where knowledge meets opportunity.",2025-02-02 16:09:37,6,Bangkok,Thailand,6.798393030197426,97.70011785377935,4455,3.0,627,Medium,Expats
Backpacking & Travel Stories in Bangkok,Travel,"Get inspired at Cultural Exchange & Nomad Networking in Bangkok, where travel enthusiasts share their stories and experiences.",2025-01-05 06:03:53,5,Bangkok,Thailand,10.507696011054566,97.01739700855863,1915,3.3,603,High,Nomads
Island Hopping Adventure from Bangkok,Travel,"Get inspired at Island Hopping Adventure from Bangkok, where travel enthusiasts share their stories and experiences.",2025-03-06 01:33:30,2,Bangkok,Thailand,9.03872781495918,98.46748907205583,3051,4.4,764,Free,Everyone
Motorbike Road Trip Through Bangkok,Travel,Island Hopping Adventure from Bangkok is your gateway to discovering hidden gems and breathtaking destinations.,2025-01-12 13:40:28,3,Bangkok,Thailand,17.01597790994694,99.0392521464202,4065,3.9,658,Low,Locals
Waterfalls & Jungle Trekking in Bangkok,Travel,"Get inspired at Backpacking & Travel Stories in Bangkok, where travel enthusiasts share their stories and experiences.",2025-01-07 16:38:44,5,Bangkok,Thailand,18.40417587131168,95.96555568059156,1901,4.1,312,Free,Nomads
Electronic Dance Night in Chiang Mai,Music,"Join us for Acoustic Music Gathering in Chiang Mai, where you'll enjoy an evening of live music and unforgettable performances.",2025-01-06 20:15:36,4,Chiang Mai,Thailand,17.0562875848663,95.37226476020862,2531,3.5,188,Low,Locals
Sunset Music Vibes in Chiang Mai,Music,"Get ready to dance the night away at Sunset Music Vibes in Chiang Mai, featuring amazing artists and a lively crowd.",2025-01-07 00:03:14,5,Chiang Mai,Thailand,16.17812034714055,104.45746410236694,398,5.0,680,Low,Expats
Live Jazz Festival in Chiang Mai,Music,"Join us for Live Jazz Festival in Chiang Mai, where you'll enjoy an evening of live music and unforgettable performances.",2025-01-29 10:33:26,1,Chiang Mai,Thailand,18.484263004985863,101.01110414428844,2605,4.8,25,Free,Nomads
Indie Rock Fest in Chiang Mai,Music,Experience the best of Electronic Dance Night in Chiang Mai with top DJs and bands setting the vibe.,2025-01-01 17:08:51,5,Chiang Mai,Thailand,9.497142079063885,103.72998622046075,4587,4.7,531,Medium,Locals
Cycling Race through Chiang Mai,Sports,"Compete or cheer at Cycling Race through Chiang Mai, an action-packed event for sports enthusiasts.",2025-01-28 16:25:47,2,Chiang Mai,Thailand,15.183697132306314,100.13656652947009,4802,3.2,504,Medium,Everyone
Yoga & Wellness Retreat in Chiang Mai,Sports,Yoga & Wellness Retreat in Chiang Mai is your chance to experience the thrill of competition and sportsmanship.,2025-02-22 12:11:28,6,Chiang Mai,Thailand,10.123102403556086,96.66549197601832,4913,3.5,647,High,Everyone
Marathon Challenge in Chiang Mai,Sports,"Compete or cheer at Marathon Challenge in Chiang Mai, an action-packed event for sports enthusiasts.",2025-01-07 22:26:06,1,Chiang Mai,Thailand,10.409082007442638,95.76666574549701,3468,3.9,438,Medium,Expats
Muay Thai Championship in Chiang Mai,Sports,Join us at Yoga & Wellness Retreat in Chiang Mai and test your fitness in a friendly and challenging environment.,2025-01-01 10:38:26,3,Chiang Mai,Thailand,6.527096167884649,104.42790946308962,2608,4.2,251,Medium,Locals
Startup Pitch Night in Chiang Mai,Technology,"Step into the world of tomorrow at Startup Pitch Night in Chiang Mai, a tech event designed for innovators.",2025-01-27 08:02:07,1,Chiang Mai,Thailand,15.721708173043183,96.40303481247012,2267,4.1,43,Medium,Everyone
AI & Blockchain Summit in Chiang Mai,Technology,"Join industry experts at AI & Blockchain Summit in Chiang Mai to discuss the future of AI, blockchain, and more.",2025-02-26 23:04:25,2,Chiang Mai,Thailand,5.948712424190112,98.24105423010799,1182,3.3,42,Medium,Everyone
Web Development Workshop in Chiang Mai,Technology,"Startup Pitch Night in Chiang Mai is the place to learn, network, and explore groundbreaking tech solutions.",2025-01-08 01:56:14,5,Chiang Mai,Thailand,16.77883191379029,102.64103788569773,2296,4.9,996,High,Locals
Data Science Hackathon in Chiang Mai,Technology,Data Science Hackathon in Chiang Mai is the ultimate event for aspiring developers and startup founders.,2025-02-05 04:30:26,5,Chiang Mai,Thailand,13.527962932051407,99.42769249127984,4203,4.9,477,High,Nomads
Photography & Film Showcase in Chiang Mai,Arts,Experience the beauty of traditional and modern art at Photography & Film Showcase in Chiang Mai.,2025-03-03 12:40:20,5,Chiang Mai,Thailand,15.498603093584785,96.81252722587678,1421,3.1,319,High,Expats
Theatre & Performing Arts Festival in Chiang Mai,Arts,"Street Art & Graffiti Fest in Chiang Mai is a must-visit for art lovers, featuring exhibitions, workshops, and live performances.",2025-03-02 22:56:54,6,Chiang Mai,Thailand,19.893966899104385,100.3938759061162,3837,4.0,909,Free,Expats
Thai Dessert & Tea Tasting in Chiang Mai,Food,"Join us for Thai Dessert & Tea Tasting in Chiang Mai, where you'll discover new dishes and culinary delights.",2025-02-06 15:08:26,3,Chiang Mai,Thailand,9.230115907441027,99.85551461336873,885,3.6,332,Free,Expats
Vegan Cooking Class in Chiang Mai,Food,"Indulge in the best flavors at Vegan Cooking Class in Chiang Mai, where food lovers gather to feast.",2025-02-06 21:08:13,3,Chiang Mai,Thailand,10.045681736507163,99.46927453053844,1843,3.1,747,Medium,Locals
International Food Festival in Chiang Mai,Food,"Foodies, don’t miss Vegan Cooking Class in Chiang Mai, the ultimate festival for street food and gourmet treats.",2025-01-27 05:08:12,4,Chiang Mai,Thailand,7.652643754411216,104.61678351694346,432,4.5,976,Free,Expats
Street Food Market in Chiang Mai,Food,"Join us for International Food Festival in Chiang Mai, where you'll discover new dishes and culinary delights.",2025-01-13 17:40:09,2,Chiang Mai,Thailand,19.42449923900149,99.322460954425,2526,4.4,646,High,Nomads
Gourmet Tasting Event in Chiang Mai,Food,"Satisfy your cravings at International Food Festival in Chiang Mai, featuring a variety of delicious cuisines.",2025-01-09 12:46:54,1,Chiang Mai,Thailand,14.176256575934826,103.63465435037526,1383,3.3,388,Medium,Locals
Financial Literacy Workshop in Chiang Mai,Education,Financial Literacy Workshop in Chiang Mai offers workshops and talks on essential skills for personal and professional growth.,2025-03-05 02:20:45,1,Chiang Mai,Thailand,14.708670184863912,98.11547353212549,4627,4.1,703,Free,Expats
Freelancing & Remote Work Seminar in Chiang Mai,Education,"Expand your knowledge at Freelancing & Remote Work Seminar in Chiang Mai, a learning event designed to inspire and educate.",2025-02-13 05:53:57,1,Chiang Mai,Thailand,14.154600500788202,102.67822858933738,756,3.6,815,Medium,Everyone
Mindfulness & Meditation Retreat in Chiang Mai,Education,"Boost your expertise at Freelancing & Remote Work Seminar in Chiang Mai, where knowledge meets opportunity.",2025-03-15 03:21:23,1,Chiang Mai,Thailand,13.840754923953563,95.49554159590686,4950,3.1,605,Low,Everyone
Cultural Exchange & Nomad Networking in Chiang Mai,Travel,"Step into a world of exploration at Cultural Exchange & Nomad Networking in Chiang Mai, designed for those who love to roam.",2025-01-22 01:02:12,4,Chiang Mai,Thailand,16.84018133719224,103.43129958397283,3803,3.9,612,Medium,Nomads
Island Hopping Adventure from Chiang Mai,Travel,"Get inspired at Island Hopping Adventure from Chiang Mai, where travel enthusiasts share their stories and experiences.",2025-02-25 13:08:36,1,Chiang Mai,Thailand,7.027853000315689,101.72078996561592,2908,4.5,242,High,Everyone
Backpacking & Travel Stories in Chiang Mai,Travel,"Join fellow explorers at Waterfalls & Jungle Trekking in Chiang Mai, a gathering of wanderers and adventure seekers.",2025-03-09 17:52:39,4,Chiang Mai,Thailand,8.90052720934946,96.13869408817396,27,4.0,86,High,Everyone
Live Jazz Festival in Phuket,Music,"Celebrate your love for music at Live Jazz Festival in Phuket, showcasing talented local and international musicians.",2025-01-30 07:38:17,6,Phuket,Thailand,7.539880175406557,96.22174614568462,1690,3.1,174,Free,Locals
Acoustic Music Gathering in Phuket,Music,"Join us for Acoustic Music Gathering in Phuket, where you'll enjoy an evening of live music and unforgettable performances.",2025-02-20 15:30:33,6,Phuket,Thailand,10.985897912393204,103.73601484611919,3655,3.1,77,Free,Nomads
Sunset Music Vibes in Phuket,Music,"Get ready to dance the night away at Sunset Music Vibes in Phuket, featuring amazing artists and a lively crowd.",2025-02-27 21:51:50,1,Phuket,Thailand,12.629064005898444,100.39282465072728,4820,3.3,233,Low,Everyone
Electronic Dance Night in Phuket,Music,"Acoustic Music Gathering in Phuket brings together music lovers for a night of indie, jazz, and electronic beats.",2025-02-01 10:03:42,3,Phuket,Thailand,12.166025891879478,97.81139893468423,1660,4.2,338,Medium,Nomads
Cycling Race through Phuket,Sports,"Get active and meet fellow athletes at Cycling Race through Phuket, perfect for beginners and pros alike.",2025-01-15 08:19:10,1,Phuket,Thailand,18.64813298080017,104.16637533539257,370,3.6,375,Medium,Expats
Muay Thai Championship in Phuket,Sports,"Get active and meet fellow athletes at Muay Thai Championship in Phuket, perfect for beginners and pros alike.",2025-02-12 08:04:52,5,Phuket,Thailand,18.95479401298349,100.666222096051,1388,4.4,761,Low,Nomads
Yoga & Wellness Retreat in Phuket,Sports,Yoga & Wellness Retreat in Phuket is set to bring an adrenaline rush with exciting games and activities.,2025-01-18 13:58:09,5,Phuket,Thailand,7.0176879537554715,97.99070114663508,1328,3.3,70,Free,Nomads
Marathon Challenge in Phuket,Sports,"Get active and meet fellow athletes at Marathon Challenge in Phuket, perfect for beginners and pros alike.",2025-03-02 03:22:26,2,Phuket,Thailand,17.964535432656923,98.59135472670346,4871,4.9,965,High,Locals
Beach Volleyball Tournament in Phuket,Sports,Beach Volleyball Tournament in Phuket is set to bring an adrenaline rush with exciting games and activities.,2025-01-24 17:19:37,6,Phuket,Thailand,14.032493811761007,100.4033312317092,3803,3.7,104,Medium,Expats
AI & Blockchain Summit in Phuket,Technology,"AI & Blockchain Summit in Phuket is the place to learn, network, and explore groundbreaking tech solutions.",2025-03-10 13:07:30,5,Phuket,Thailand,6.4070387003922225,99.1472907867452,3194,4.8,191,Medium,Nomads
Startup Pitch Night in Phuket,Technology,"Step into the world of tomorrow at Startup Pitch Night in Phuket, a tech event designed for innovators.",2025-01-18 21:43:21,2,Phuket,Thailand,10.876120431752803,99.04046537502964,450,3.8,211,Low,Expats
Web Development Workshop in Phuket,Technology,"Startup Pitch Night in Phuket is the place to learn, network, and explore groundbreaking tech solutions.",2025-01-03 01:23:49,1,Phuket,Thailand,18.506313476834478,95.47280778514768,2118,3.9,899,Medium,Nomads
Street Art & Graffiti Fest in Phuket,Arts,Experience the beauty of traditional and modern art at Photography & Film Showcase in Phuket.,2025-01-13 20:41:51,3,Phuket,Thailand,6.085019100543565,100.24284628536768,934,4.4,414,Medium,Locals
Traditional Thai Dance Performance in Phuket,Arts,"Let your artistic side shine at Traditional Thai Dance Performance in Phuket, where imagination knows no bounds.",2025-01-18 21:32:57,4,Phuket,Thailand,10.672531954885205,99.87120740096432,4020,4.1,674,Medium,Expats
Vegan Cooking Class in Phuket,Food,"Satisfy your cravings at Vegan Cooking Class in Phuket, featuring a variety of delicious cuisines.",2025-03-01 03:25:40,2,Phuket,Thailand,8.215707410825008,97.80951899627509,2147,3.3,195,Medium,Nomads
International Food Festival in Phuket,Food,"Indulge in the best flavors at Vegan Cooking Class in Phuket, where food lovers gather to feast.",2025-01-20 19:01:29,3,Phuket,Thailand,14.196257512503266,98.71180866334174,4692,3.5,560,Free,Locals
Thai Dessert & Tea Tasting in Phuket,Food,Street Food Market in Phuket brings together top chefs and food vendors for a taste experience like no other.,2025-01-06 04:16:31,1,Phuket,Thailand,16.41499469651357,96.6292114471465,3548,3.6,899,Medium,Expats
Public Speaking Bootcamp in Phuket,Education,Public Speaking Bootcamp in Phuket offers workshops and talks on essential skills for personal and professional growth.,2025-02-01 22:29:09,3,Phuket,Thailand,17.01861205351182,104.76318248052795,701,3.6,815,Low,Expats
Freelancing & Remote Work Seminar in Phuket,Education,"Boost your expertise at Public Speaking Bootcamp in Phuket, where knowledge meets opportunity.",2025-02-16 21:16:55,6,Phuket,Thailand,10.007644853229188,101.68283909361176,3302,4.9,462,High,Everyone
Mindfulness & Meditation Retreat in Phuket,Education,Freelancing & Remote Work Seminar in Phuket offers workshops and talks on essential skills for personal and professional growth.,2025-03-06 12:38:00,5,Phuket,Thailand,17.21900610910287,95.27547207740561,3555,3.7,737,Low,Locals
Thai Language & Cultural Learning in Phuket,Education,"Boost your expertise at Financial Literacy Workshop in Phuket, where knowledge meets opportunity.",2025-01-19 01:44:08,6,Phuket,Thailand,11.954852874935192,98.86291052965682,2859,3.5,301,High,Locals
Island Hopping Adventure from Phuket,Travel,"Get inspired at Motorbike Road Trip Through Phuket, where travel enthusiasts share their stories and experiences.",2025-01-16 23:39:51,5,Phuket,Thailand,19.93600722983831,101.96313820908212,4634,4.1,972,Low,Expats
Waterfalls & Jungle Trekking in Phuket,Travel,Motorbike Road Trip Through Phuket is your gateway to discovering hidden gems and breathtaking destinations.,2025-03-05 03:23:58,6,Phuket,Thailand,17.06181767237178,100.75732544687209,4197,3.0,991,High,Everyone
Backpacking & Travel Stories in Phuket,Travel,"Join fellow explorers at Backpacking & Travel Stories in Phuket, a gathering of wanderers and adventure seekers.",2025-01-06 19:03:39,4,Phuket,Thailand,5.837337021136656,97.25902512896103,1627,4.8,972,Medium,Everyone
Cultural Exchange & Nomad Networking in Phuket,Travel,"Step into a world of exploration at Cultural Exchange & Nomad Networking in Phuket, designed for those who love to roam.",2025-01-28 01:47:45,5,Phuket,Thailand,12.521983944768337,100.30360837427219,95,3.3,22,High,Nomads
Acoustic Music Gathering in Pattaya,Music,Experience the best of Acoustic Music Gathering in Pattaya with top DJs and bands setting the vibe.,2025-02-27 20:02:09,3,Pattaya,Thailand,10.300938050215295,97.77727266702074,3807,3.0,526,High,Locals
Live Jazz Festival in Pattaya,Music,"Celebrate your love for music at Live Jazz Festival in Pattaya, showcasing talented local and international musicians.",2025-01-16 09:35:41,6,Pattaya,Thailand,7.331587521797895,104.60134135968008,2531,4.7,266,Free,Nomads
Electronic Dance Night in Pattaya,Music,"Celebrate your love for music at Acoustic Music Gathering in Pattaya, showcasing talented local and international musicians.",2025-01-29 12:40:24,6,Pattaya,Thailand,13.13038993087795,99.85886846020237,994,4.3,69,Low,Everyone
Indie Rock Fest in Pattaya,Music,"Celebrate your love for music at Acoustic Music Gathering in Pattaya, showcasing talented local and international musicians.",2025-03-07 07:13:06,5,Pattaya,Thailand,18.463418137360993,100.59795626169173,42,4.1,394,High,Everyone
Sunset Music Vibes in Pattaya,Music,"Join us for Indie Rock Fest in Pattaya, where you'll enjoy an evening of live music and unforgettable performances.",2025-01-17 00:48:30,6,Pattaya,Thailand,11.063824904804921,103.86229072794369,2388,3.2,483,Free,Expats
Beach Volleyball Tournament in Pattaya,Sports,Marathon Challenge in Pattaya is set to bring an adrenaline rush with exciting games and activities.,2025-01-11 17:22:32,5,Pattaya,Thailand,5.953865384993756,98.53662220670772,1586,4.9,613,High,Nomads
Muay Thai Championship in Pattaya,Sports,Marathon Challenge in Pattaya is set to bring an adrenaline rush with exciting games and activities.,2025-01-18 13:38:49,4,Pattaya,Thailand,8.838005767041619,104.13277057674836,2805,5.0,198,Free,Locals
Cycling Race through Pattaya,Sports,Cycling Race through Pattaya is set to bring an adrenaline rush with exciting games and activities.,2025-02-03 00:47:30,5,Pattaya,Thailand,14.717541270750383,97.24385761546252,3384,4.2,883,High,Nomads
Yoga & Wellness Retreat in Pattaya,Sports,Beach Volleyball Tournament in Pattaya is your chance to experience the thrill of competition and sportsmanship.,2025-01-18 02:10:46,5,Pattaya,Thailand,19.810998227722948,95.17849117557469,3842,4.3,669,Free,Expats
AI & Blockchain Summit in Pattaya,Technology,"Step into the world of tomorrow at AI & Blockchain Summit in Pattaya, a tech event designed for innovators.",2025-03-11 11:46:04,6,Pattaya,Thailand,6.185294682045771,99.25342615712273,3224,3.5,223,High,Locals
Data Science Hackathon in Pattaya,Technology,"Step into the world of tomorrow at Startup Pitch Night in Pattaya, a tech event designed for innovators.",2025-03-12 23:20:27,1,Pattaya,Thailand,14.857366160190518,101.00712965060058,3334,4.9,855,Free,Everyone
Street Art & Graffiti Fest in Pattaya,Arts,Experience the beauty of traditional and modern art at Street Art & Graffiti Fest in Pattaya.,2025-01-09 19:41:28,4,Pattaya,Thailand,8.931816117365752,101.91310271526626,1996,4.1,249,Free,Expats
Painting & Sculpture Workshop in Pattaya,Arts,Experience the beauty of traditional and modern art at Painting & Sculpture Workshop in Pattaya.,2025-03-04 19:18:20,5,Pattaya,Thailand,15.99744395463301,101.80273154563228,4941,3.9,655,Medium,Everyone
Photography & Film Showcase in Pattaya,Arts,"Let your artistic side shine at Traditional Thai Dance Performance in Pattaya, where imagination knows no bounds.",2025-01-28 16:14:41,5,Pattaya,Thailand,11.554351926366124,104.7410321667247,301,3.5,269,High,Everyone
Theatre & Performing Arts Festival in Pattaya,Arts,Experience the beauty of traditional and modern art at Theatre & Performing Arts Festival in Pattaya.,2025-02-26 11:05:59,3,Pattaya,Thailand,9.128930214914641,95.09432584473304,867,4.9,412,Free,Everyone
Vegan Cooking Class in Pattaya,Food,"Indulge in the best flavors at Vegan Cooking Class in Pattaya, where food lovers gather to feast.",2025-03-11 08:42:37,1,Pattaya,Thailand,16.330949581863806,97.30511894490064,483,4.0,427,Medium,Locals
Gourmet Tasting Event in Pattaya,Food,"Join us for Gourmet Tasting Event in Pattaya, where you'll discover new dishes and culinary delights.",2025-01-06 12:04:40,2,Pattaya,Thailand,14.709149104660199,101.44343644056728,3051,3.2,565,Medium,Locals
Thai Dessert & Tea Tasting in Pattaya,Food,"Join us for Thai Dessert & Tea Tasting in Pattaya, where you'll discover new dishes and culinary delights.",2025-02-22 05:29:28,5,Pattaya,Thailand,18.866768293838966,102.50778578481494,3173,4.9,874,High,Expats
Mindfulness & Meditation Retreat in Pattaya,Education,"Unlock new possibilities at Mindfulness & Meditation Retreat in Pattaya, an event tailored for lifelong learners.",2025-01-15 15:57:45,4,Pattaya,Thailand,18.357195748670833,102.75196136120987,3751,3.6,821,Low,Everyone
Freelancing & Remote Work Seminar in Pattaya,Education,"Unlock new possibilities at Financial Literacy Workshop in Pattaya, an event tailored for lifelong learners.",2025-02-22 09:12:09,3,Pattaya,Thailand,18.097388435516088,96.1710119699099,4780,3.4,842,Free,Locals
Thai Language & Cultural Learning in Pattaya,Education,"Boost your expertise at Public Speaking Bootcamp in Pattaya, where knowledge meets opportunity.",2025-03-14 20:10:42,6,Pattaya,Thailand,5.906714381783377,97.74290861538371,1452,3.4,260,Medium,Nomads
Motorbike Road Trip Through Pattaya,Travel,"Step into a world of exploration at Motorbike Road Trip Through Pattaya, designed for those who love to roam.",2025-02-02 07:40:41,5,Pattaya,Thailand,14.349936261194918,104.70498291872059,569,4.8,766,High,Nomads
Island Hopping Adventure from Pattaya,Travel,"Motorbike Road Trip Through Pattaya is all about new adventures, cultural discoveries, and unforgettable journeys.",2025-02-26 11:05:35,6,Pattaya,Thailand,19.91754387611386,103.1601044581337,2324,3.4,856,Medium,Everyone
Cultural Exchange & Nomad Networking in Pattaya,Travel,"Step into a world of exploration at Cultural Exchange & Nomad Networking in Pattaya, designed for those who love to roam.",2025-01-18 15:26:35,2,Pattaya,Thailand,8.97008042291225,103.15325691884806,4972,4.0,912,Low,Locals
Backpacking & Travel Stories in Pattaya,Travel,"Join fellow explorers at Motorbike Road Trip Through Pattaya, a gathering of wanderers and adventure seekers.",2025-02-21 08:28:20,6,Pattaya,Thailand,11.39393725610887,96.85442200730681,2060,4.7,231,Low,Nomads
Sunset Music Vibes in Krabi,Music,Experience the best of Sunset Music Vibes in Krabi with top DJs and bands setting the vibe.,2025-01-07 04:56:58,4,Krabi,Thailand,9.580230107657547,95.4341101643193,1219,3.5,642,Low,Nomads
Indie Rock Fest in Krabi,Music,"Join us for Indie Rock Fest in Krabi, where you'll enjoy an evening of live music and unforgettable performances.",2025-02-25 08:18:58,2,Krabi,Thailand,14.922544904817592,103.0173508467187,4787,5.0,811,Low,Everyone
Acoustic Music Gathering in Krabi,Music,"Get ready to dance the night away at Sunset Music Vibes in Krabi, featuring amazing artists and a lively crowd.",2025-01-07 19:39:30,3,Krabi,Thailand,17.619204446100568,101.30836801160122,684,4.3,464,Low,Nomads
Electronic Dance Night in Krabi,Music,"Get ready to dance the night away at Sunset Music Vibes in Krabi, featuring amazing artists and a lively crowd.",2025-03-05 15:55:52,1,Krabi,Thailand,6.801694033551394,102.22246419568688,4038,4.2,206,Low,Expats
Live Jazz Festival in Krabi,Music,"Celebrate your love for music at Electronic Dance Night in Krabi, showcasing talented local and international musicians.",2025-01-05 03:49:43,3,Krabi,Thailand,15.635737821556457,98.73242900561563,3567,4.2,26,Free,Locals
Muay Thai Championship in Krabi,Sports,Muay Thai Championship in Krabi is set to bring an adrenaline rush with exciting games and activities.,2025-03-11 19:21:26,4,Krabi,Thailand,11.922733598895917,100.08213407942485,2098,3.7,200,High,Locals
Marathon Challenge in Krabi,Sports,"Compete or cheer at Marathon Challenge in Krabi, an action-packed event for sports enthusiasts.",2025-03-15 17:55:41,1,Krabi,Thailand,12.873008085630168,95.35716115179974,4206,3.0,916,Low,Everyone
Yoga & Wellness Retreat in Krabi,Sports,"Get active and meet fellow athletes at Muay Thai Championship in Krabi, perfect for beginners and pros alike.",2025-01-30 19:43:21,1,Krabi,Thailand,18.498904247044475,97.58653446174895,1188,4.8,85,High,Nomads
Beach Volleyball Tournament in Krabi,Sports,Yoga & Wellness Retreat in Krabi is set to bring an adrenaline rush with exciting games and activities.,2025-01-28 04:25:41,1,Krabi,Thailand,17.06603409237912,104.76552589407457,4769,3.9,425,Medium,Nomads
Cycling Race through Krabi,Sports,"Get active and meet fellow athletes at Beach Volleyball Tournament in Krabi, perfect for beginners and pros alike.",2025-02-11 18:46:41,1,Krabi,Thailand,8.494227482774257,103.56163389402744,908,3.3,140,High,Nomads
Startup Pitch Night in Krabi,Technology,"Step into the world of tomorrow at Startup Pitch Night in Krabi, a tech event designed for innovators.",2025-01-26 12:18:20,4,Krabi,Thailand,9.907423674934504,102.7404936996207,3933,3.9,664,Low,Expats
Web Development Workshop in Krabi,Technology,"Step into the world of tomorrow at Web Development Workshop in Krabi, a tech event designed for innovators.",2025-01-05 18:19:37,4,Krabi,Thailand,19.77500562907059,98.04362216920349,3811,3.8,357,Low,Locals
Cybersecurity Conference in Krabi,Technology,"AI & Blockchain Summit in Krabi is the place to learn, network, and explore groundbreaking tech solutions.",2025-02-16 14:25:17,2,Krabi,Thailand,18.102422439888517,96.6450855242553,3770,4.1,828,Medium,Everyone
Data Science Hackathon in Krabi,Technology,Data Science Hackathon in Krabi is the ultimate event for aspiring developers and startup founders.,2025-02-24 12:29:03,1,Krabi,Thailand,8.16915925998402,95.16260654867298,3624,4.4,737,Low,Everyone
Painting & Sculpture Workshop in Krabi,Arts,"Let your artistic side shine at Painting & Sculpture Workshop in Krabi, where imagination knows no bounds.",2025-01-30 14:39:55,6,Krabi,Thailand,7.601695519380419,98.66599301254935,366,4.1,583,Medium,Everyone
Photography & Film Showcase in Krabi,Arts,Experience the beauty of traditional and modern art at Theatre & Performing Arts Festival in Krabi.,2025-02-28 05:13:16,6,Krabi,Thailand,7.954205627478723,102.69336646304583,901,3.1,802,Medium,Expats
Street Art & Graffiti Fest in Krabi,Arts,"Photography & Film Showcase in Krabi is a must-visit for art lovers, featuring exhibitions, workshops, and live performances.",2025-03-12 00:44:24,4,Krabi,Thailand,19.715356150210905,102.34160231250937,4086,4.5,690,Medium,Nomads
Traditional Thai Dance Performance in Krabi,Arts,Experience the beauty of traditional and modern art at Painting & Sculpture Workshop in Krabi.,2025-01-19 03:42:26,4,Krabi,Thailand,19.805069715843125,100.38830259579603,970,4.0,418,High,Everyone
Gourmet Tasting Event in Krabi,Food,"Foodies, don’t miss Gourmet Tasting Event in Krabi, the ultimate festival for street food and gourmet treats.",2025-01-28 08:29:00,6,Krabi,Thailand,6.2350836849790605,104.79026088963346,1183,3.4,827,Medium,Nomads
International Food Festival in Krabi,Food,"Indulge in the best flavors at International Food Festival in Krabi, where food lovers gather to feast.",2025-02-27 20:29:38,4,Krabi,Thailand,7.686127572797122,95.51467551296474,1981,3.3,331,Low,Everyone
Thai Dessert & Tea Tasting in Krabi,Food,"Indulge in the best flavors at Thai Dessert & Tea Tasting in Krabi, where food lovers gather to feast.",2025-03-01 13:52:28,5,Krabi,Thailand,13.427185419547719,100.10750984882702,2302,3.2,354,Low,Expats
Street Food Market in Krabi,Food,Thai Dessert & Tea Tasting in Krabi brings together top chefs and food vendors for a taste experience like no other.,2025-01-16 11:03:32,4,Krabi,Thailand,15.182669428980176,96.21596257365293,3908,4.6,736,Low,Everyone
Vegan Cooking Class in Krabi,Food,"Foodies, don’t miss Vegan Cooking Class in Krabi, the ultimate festival for street food and gourmet treats.",2025-02-18 01:13:58,1,Krabi,Thailand,18.337190099883735,101.2951039155545,1034,3.2,143,High,Everyone
Mindfulness & Meditation Retreat in Krabi,Education,"Expand your knowledge at Thai Language & Cultural Learning in Krabi, a learning event designed to inspire and educate.",2025-01-24 15:15:04,4,Krabi,Thailand,18.76094315044386,99.47982174241861,1698,4.2,448,Low,Nomads
Public Speaking Bootcamp in Krabi,Education,"Unlock new possibilities at Mindfulness & Meditation Retreat in Krabi, an event tailored for lifelong learners.",2025-03-12 06:07:19,2,Krabi,Thailand,7.018672271641017,103.80056113943415,1958,5.0,955,Free,Locals
Island Hopping Adventure from Krabi,Travel,Island Hopping Adventure from Krabi is your gateway to discovering hidden gems and breathtaking destinations.,2025-01-20 17:32:43,3,Krabi,Thailand,6.6501692789540385,96.65826031940354,3094,3.2,975,Medium,Nomads
Cultural Exchange & Nomad Networking in Krabi,Travel,Waterfalls & Jungle Trekking in Krabi is your gateway to discovering hidden gems and breathtaking destinations.,2025-01-24 02:37:07,1,Krabi,Thailand,8.55132792855742,95.64170957450347,1720,4.0,955,High,Expats
Motorbike Road Trip Through Krabi,Travel,"Step into a world of exploration at Motorbike Road Trip Through Krabi, designed for those who love to roam.",2025-02-05 09:47:53,2,Krabi,Thailand,6.1533636709072566,100.77525975840516,4683,5.0,582,Free,Locals
Acoustic Music Gathering in Hua Hin,Music,"Celebrate your love for music at Live Jazz Festival in Hua Hin, showcasing talented local and international musicians.",2025-03-14 17:28:33,5,Hua Hin,Thailand,9.239190763896755,100.90464933799409,1194,4.9,300,Medium,Nomads
Yoga & Wellness Retreat in Hua Hin,Sports,"Get active and meet fellow athletes at Marathon Challenge in Hua Hin, perfect for beginners and pros alike.",2025-03-08 04:24:31,4,Hua Hin,Thailand,6.207674882502658,104.27412940287138,3052,4.9,631,High,Locals
Beach Volleyball Tournament in Hua Hin,Sports,Yoga & Wellness Retreat in Hua Hin is set to bring an adrenaline rush with exciting games and activities.,2025-01-03 01:17:30,6,Hua Hin,Thailand,19.801526889204894,100.42634262378205,876,4.3,713,High,Everyone
Muay Thai Championship in Hua Hin,Sports,"Compete or cheer at Muay Thai Championship in Hua Hin, an action-packed event for sports enthusiasts.",2025-01-17 13:00:38,3,Hua Hin,Thailand,6.3249574942830264,103.64702961531233,890,4.5,498,Medium,Locals
Cycling Race through Hua Hin,Sports,"Compete or cheer at Marathon Challenge in Hua Hin, an action-packed event for sports enthusiasts.",2025-02-23 12:58:04,6,Hua Hin,Thailand,14.773461808672108,100.99269311434409,3522,4.1,591,High,Nomads
Cybersecurity Conference in Hua Hin,Technology,"Dive into the latest innovations at Web Development Workshop in Hua Hin, where tech meets creativity.",2025-03-06 01:58:46,4,Hua Hin,Thailand,15.088135510144275,104.30602238959595,1907,5.0,569,Medium,Everyone
Data Science Hackathon in Hua Hin,Technology,"AI & Blockchain Summit in Hua Hin is the place to learn, network, and explore groundbreaking tech solutions.",2025-01-16 06:54:14,1,Hua Hin,Thailand,17.92588338918974,97.47175485174596,4802,4.8,243,Medium,Expats
Painting & Sculpture Workshop in Hua Hin,Arts,"Painting & Sculpture Workshop in Hua Hin is a must-visit for art lovers, featuring exhibitions, workshops, and live performances.",2025-01-07 21:29:04,6,Hua Hin,Thailand,10.715258873874511,98.60622971446472,4257,4.1,95,Low,Expats
Photography & Film Showcase in Hua Hin,Arts,Discover inspiring artworks and meet talented creators at Photography & Film Showcase in Hua Hin.,2025-03-03 01:38:12,2,Hua Hin,Thailand,9.41988913957859,95.9187425681049,169,5.0,87,High,Nomads
Theatre & Performing Arts Festival in Hua Hin,Arts,Discover inspiring artworks and meet talented creators at Theatre & Performing Arts Festival in Hua Hin.,2025-02-04 23:36:48,4,Hua Hin,Thailand,11.051959747743417,98.05093212047635,1215,3.3,736,Free,Everyone
Traditional Thai Dance Performance in Hua Hin,Arts,Discover inspiring artworks and meet talented creators at Theatre & Performing Arts Festival in Hua Hin.,2025-01-09 05:12:02,4,Hua Hin,Thailand,14.206014290657265,101.78213601247893,2136,4.8,855,High,Everyone
Street Art & Graffiti Fest in Hua Hin,Arts,"Let your artistic side shine at Street Art & Graffiti Fest in Hua Hin, where imagination knows no bounds.",2025-03-14 01:30:17,3,Hua Hin,Thailand,19.52117426192634,103.73225272703559,799,4.4,994,Low,Everyone
Vegan Cooking Class in Hua Hin,Food,Vegan Cooking Class in Hua Hin brings together top chefs and food vendors for a taste experience like no other.,2025-01-30 15:34:53,2,Hua Hin,Thailand,8.018612695907207,102.83574735315415,2707,4.6,824,Low,Nomads
Gourmet Tasting Event in Hua Hin,Food,"Indulge in the best flavors at Gourmet Tasting Event in Hua Hin, where food lovers gather to feast.",2025-03-15 19:03:44,5,Hua Hin,Thailand,15.653461996448312,101.68295648043159,3644,3.0,871,Low,Everyone
Thai Dessert & Tea Tasting in Hua Hin,Food,"Join us for Thai Dessert & Tea Tasting in Hua Hin, where you'll discover new dishes and culinary delights.",2025-02-22 17:49:20,3,Hua Hin,Thailand,9.206809481075313,102.20978573879532,4027,3.1,679,Free,Locals
Street Food Market in Hua Hin,Food,"Join us for Thai Dessert & Tea Tasting in Hua Hin, where you'll discover new dishes and culinary delights.",2025-03-10 17:31:50,2,Hua Hin,Thailand,9.697328359710772,104.3115829089506,600,3.6,459,Low,Locals
International Food Festival in Hua Hin,Food,Thai Dessert & Tea Tasting in Hua Hin brings together top chefs and food vendors for a taste experience like no other.,2025-01-18 17:56:19,1,Hua Hin,Thailand,11.538760464708371,100.86223453370559,2732,4.6,536,Medium,Nomads
Mindfulness & Meditation Retreat in Hua Hin,Education,Join experts at Mindfulness & Meditation Retreat in Hua Hin for insightful discussions and hands-on learning experiences.,2025-01-27 11:36:52,6,Hua Hin,Thailand,18.237465407777076,101.29202631789113,3226,3.2,657,Low,Everyone
Public Speaking Bootcamp in Hua Hin,Education,"Expand your knowledge at Mindfulness & Meditation Retreat in Hua Hin, a learning event designed to inspire and educate.",2025-02-23 14:43:18,2,Hua Hin,Thailand,9.565935878438843,95.19931373398553,4613,4.4,195,Free,Everyone
Financial Literacy Workshop in Hua Hin,Education,"Expand your knowledge at Financial Literacy Workshop in Hua Hin, a learning event designed to inspire and educate.",2025-03-16 18:54:16,3,Hua Hin,Thailand,15.253473164148977,98.16974279513286,4397,3.5,496,Low,Expats
Thai Language & Cultural Learning in Hua Hin,Education,Thai Language & Cultural Learning in Hua Hin offers workshops and talks on essential skills for personal and professional growth.,2025-01-15 13:40:43,4,Hua Hin,Thailand,10.808684794070778,100.84095283350328,4799,5.0,768,Medium,Nomads
Freelancing & Remote Work Seminar in Hua Hin,Education,Join experts at Financial Literacy Workshop in Hua Hin for insightful discussions and hands-on learning experiences.,2025-01-10 16:44:23,2,Hua Hin,Thailand,18.22840656338658,103.80716682662585,4467,4.8,498,Free,Everyone
Waterfalls & Jungle Trekking in Hua Hin,Travel,"Join fellow explorers at Waterfalls & Jungle Trekking in Hua Hin, a gathering of wanderers and adventure seekers.",2025-01-03 11:09:44,1,Hua Hin,Thailand,6.472788659408488,100.26625973316744,4762,4.6,738,Medium,Everyone
Cultural Exchange & Nomad Networking in Hua Hin,Travel,"Cultural Exchange & Nomad Networking in Hua Hin is all about new adventures, cultural discoveries, and unforgettable journeys.",2025-02-09 10:55:10,6,Hua Hin,Thailand,13.410571642169515,99.9836302353049,1612,4.4,823,High,Everyone
Island Hopping Adventure from Hua Hin,Travel,"Waterfalls & Jungle Trekking in Hua Hin is all about new adventures, cultural discoveries, and unforgettable journeys.",2025-03-04 10:51:17,1,Hua Hin,Thailand,19.825711693718826,99.53725748047655,3969,4.7,104,Low,Expats
Motorbike Road Trip Through Hua Hin,Travel,Island Hopping Adventure from Hua Hin is your gateway to discovering hidden gems and breathtaking destinations.,2025-02-28 12:16:52,3,Hua Hin,Thailand,14.74292951291502,98.39092791991033,1956,3.9,17,Medium,Everyone
Sunset Music Vibes in Koh Samui,Music,"Get ready to dance the night away at Sunset Music Vibes in Koh Samui, featuring amazing artists and a lively crowd.",2025-02-17 09:36:37,5,Koh Samui,Thailand,15.51358524449132,98.02832393871759,3173,4.6,540,Medium,Locals
Indie Rock Fest in Koh Samui,Music,Experience the best of Indie Rock Fest in Koh Samui with top DJs and bands setting the vibe.,2025-03-02 16:05:27,2,Koh Samui,Thailand,9.800013422996127,98.60252674793536,674,3.3,575,Low,Nomads
Live Jazz Festival in Koh Samui,Music,"Get ready to dance the night away at Live Jazz Festival in Koh Samui, featuring amazing artists and a lively crowd.",2025-02-05 13:55:10,2,Koh Samui,Thailand,11.406178184323895,104.53104575405766,394,3.4,750,Medium,Expats
Acoustic Music Gathering in Koh Samui,Music,"Electronic Dance Night in Koh Samui brings together music lovers for a night of indie, jazz, and electronic beats.",2025-02-08 18:07:29,1,Koh Samui,Thailand,18.096944161880053,101.36602312713306,4060,3.5,605,Medium,Everyone
Beach Volleyball Tournament in Koh Samui,Sports,"Compete or cheer at Beach Volleyball Tournament in Koh Samui, an action-packed event for sports enthusiasts.",2025-02-14 23:29:17,5,Koh Samui,Thailand,18.45791815533675,104.04400350433039,3878,4.0,381,Medium,Nomads
Muay Thai Championship in Koh Samui,Sports,Muay Thai Championship in Koh Samui is set to bring an adrenaline rush with exciting games and activities.,2025-02-09 09:09:59,1,Koh Samui,Thailand,16.391473473832008,100.8874476316642,2689,4.2,431,Medium,Everyone
Cycling Race through Koh Samui,Sports,"Compete or cheer at Cycling Race through Koh Samui, an action-packed event for sports enthusiasts.",2025-01-31 14:16:27,6,Koh Samui,Thailand,9.751450358726016,97.18784569986465,575,4.9,423,Free,Nomads
Yoga & Wellness Retreat in Koh Samui,Sports,Yoga & Wellness Retreat in Koh Samui is your chance to experience the thrill of competition and sportsmanship.,2025-03-15 16:03:57,3,Koh Samui,Thailand,19.777288018110184,99.96252480911305,1766,3.3,910,Free,Expats
Marathon Challenge in Koh Samui,Sports,Join us at Marathon Challenge in Koh Samui and test your fitness in a friendly and challenging environment.,2025-03-02 08:40:42,3,Koh Samui,Thailand,17.024972716061598,97.06764371161873,3997,4.0,549,Medium,Expats
Web Development Workshop in Koh Samui,Technology,"Join industry experts at Cybersecurity Conference in Koh Samui to discuss the future of AI, blockchain, and more.",2025-01-07 22:17:50,1,Koh Samui,Thailand,14.430065402739862,98.85253650309737,4400,3.8,893,Free,Nomads
Data Science Hackathon in Koh Samui,Technology,"Step into the world of tomorrow at Cybersecurity Conference in Koh Samui, a tech event designed for innovators.",2025-01-03 06:46:39,1,Koh Samui,Thailand,7.187245346507666,99.11208977456391,1517,4.0,795,High,Nomads
AI & Blockchain Summit in Koh Samui,Technology,Data Science Hackathon in Koh Samui is the ultimate event for aspiring developers and startup founders.,2025-01-10 14:56:21,5,Koh Samui,Thailand,13.261931722127642,100.83275242638071,407,4.1,319,High,Everyone
Painting & Sculpture Workshop in Koh Samui,Arts,"Immerse yourself in creativity at Painting & Sculpture Workshop in Koh Samui, showcasing stunning visual and performing arts.",2025-02-17 07:42:10,5,Koh Samui,Thailand,6.857501175461697,103.44231707311725,1612,3.5,299,High,Everyone
Photography & Film Showcase in Koh Samui,Arts,"Photography & Film Showcase in Koh Samui is a must-visit for art lovers, featuring exhibitions, workshops, and live performances.",2025-02-02 13:13:36,2,Koh Samui,Thailand,7.8380361354717385,104.21170229344051,4963,3.8,389,High,Expats
Theatre & Performing Arts Festival in Koh Samui,Arts,"Let your artistic side shine at Photography & Film Showcase in Koh Samui, where imagination knows no bounds.",2025-01-01 00:53:43,6,Koh Samui,Thailand,12.466172422293813,96.2404043858129,3913,3.9,835,Medium,Locals
Traditional Thai Dance Performance in Koh Samui,Arts,Discover inspiring artworks and meet talented creators at Painting & Sculpture Workshop in Koh Samui.,2025-02-23 14:33:52,2,Koh Samui,Thailand,10.190785037571636,96.8351923608271,3138,4.6,215,Medium,Nomads
International Food Festival in Koh Samui,Food,International Food Festival in Koh Samui brings together top chefs and food vendors for a taste experience like no other.,2025-01-02 11:25:44,6,Koh Samui,Thailand,5.754084204583444,101.40137694341291,4774,4.2,498,Medium,Nomads
Vegan Cooking Class in Koh Samui,Food,International Food Festival in Koh Samui brings together top chefs and food vendors for a taste experience like no other.,2025-01-16 16:02:09,1,Koh Samui,Thailand,7.508001592892981,101.7517484149855,586,4.3,254,Low,Locals
Thai Dessert & Tea Tasting in Koh Samui,Food,Vegan Cooking Class in Koh Samui brings together top chefs and food vendors for a taste experience like no other.,2025-02-14 20:17:37,4,Koh Samui,Thailand,10.128905877086595,97.50052558244482,4476,4.8,698,Low,Nomads
Financial Literacy Workshop in Koh Samui,Education,Financial Literacy Workshop in Koh Samui offers workshops and talks on essential skills for personal and professional growth.,2025-02-06 20:09:58,1,Koh Samui,Thailand,15.633046427492486,97.59039636447984,4006,4.3,756,Free,Everyone
Freelancing & Remote Work Seminar in Koh Samui,Education,"Boost your expertise at Financial Literacy Workshop in Koh Samui, where knowledge meets opportunity.",2025-01-13 20:22:42,2,Koh Samui,Thailand,6.291821727223167,104.85704740299339,1825,4.3,44,High,Locals
Public Speaking Bootcamp in Koh Samui,Education,"Expand your knowledge at Freelancing & Remote Work Seminar in Koh Samui, a learning event designed to inspire and educate.",2025-02-27 19:44:10,4,Koh Samui,Thailand,16.58452320464435,104.04821834838556,1409,4.2,322,Free,Everyone
Backpacking & Travel Stories in Koh Samui,Travel,"Step into a world of exploration at Island Hopping Adventure from Koh Samui, designed for those who love to roam.",2025-03-05 00:19:15,2,Koh Samui,Thailand,9.1427296036411,103.85719643391994,4537,4.0,419,Low,Everyone
Motorbike Road Trip Through Koh Samui,Travel,"Step into a world of exploration at Motorbike Road Trip Through Koh Samui, designed for those who love to roam.",2025-01-24 03:35:01,5,Koh Samui,Thailand,14.445249543145147,102.35928767428977,1491,5.0,986,Free,Expats
Waterfalls & Jungle Trekking in Koh Samui,Travel,Motorbike Road Trip Through Koh Samui is your gateway to discovering hidden gems and breathtaking destinations.,2025-03-12 08:50:46,1,Koh Samui,Thailand,19.721776991040045,104.9373710451188,357,4.2,616,High,Everyone
Cultural Exchange & Nomad Networking in Koh Samui,Travel,"Get inspired at Waterfalls & Jungle Trekking in Koh Samui, where travel enthusiasts share their stories and experiences.",2025-03-07 16:40:22,5,Koh Samui,Thailand,19.162181047333966,95.64922068345047,1130,4.4,749,High,Nomads
Electronic Dance Night in Chiang Rai,Music,"Join us for Electronic Dance Night in Chiang Rai, where you'll enjoy an evening of live music and unforgettable performances.",2025-01-12 22:53:57,5,Chiang Rai,Thailand,17.866631016774,103.91759208541237,2506,4.4,221,Low,Expats
Live Jazz Festival in Chiang Rai,Music,"Get ready to dance the night away at Live Jazz Festival in Chiang Rai, featuring amazing artists and a lively crowd.",2025-01-18 17:30:03,4,Chiang Rai,Thailand,5.021462581161199,101.75247295887192,4705,4.1,854,Low,Locals
Acoustic Music Gathering in Chiang Rai,Music,"Join us for Acoustic Music Gathering in Chiang Rai, where you'll enjoy an evening of live music and unforgettable performances.",2025-02-22 06:16:36,6,Chiang Rai,Thailand,19.60918183632528,95.70820985850536,390,4.6,18,Medium,Locals
